Nombre,Latitud,Longitud,Direccion,Modalidades,department,municipality,dep_id,mun_id
SAN JOSÉ,12.59718900,-85.66285500,EL BEJUCO.,PRIMARIA MULTIGRADO,Boaco,Boaco,11,100
ARMIDA BRAVO,12.53024000,-85.66192000,BUENA VISTA.,"PREESCOLAR COMUNITARIO MULTINIVEL, PRIMARIA MULTIGRADO",Boaco,Boaco,11,100
PREESCOLAR LOS VALLES,12.58205000,-85.65926000,CASERIO DE LOS VALLES.,"PREESCOLAR COMUNITARIO MULTINIVEL, PRIMARIA MULTIGRADO",Boaco,Boaco,11,100
C.D.I DIVINO NIÑO JESÚS (OSCAR DÍAZ),12.46960000,-85.66240000,SILAIS 1 ½ C. AL ESTE ½ AL SUR.,PREESCOLAR FORMAL,Boaco,Boaco,11,100
CENTRO ESCOLAR JULIA GARCIA LARGAESPADA,12.47261000,-85.65488000,BARRIO TIERRA BLANCA.,"PREESCOLAR FORMAL, Primaria Comunitaria JYA, PRIMARIA ACELERADA(CEDA), PRIMARIA REGULAR, PREESCOLAR COMUNITARIO",Boaco,Boaco,11,100
CENTRO ESCOLAR SAN MIGUEL,12.47596000,-85.66053000,DE LA KODAK  3 C. AL NORTE ½ AL ESTE.,"PREESCOLAR FORMAL MULTINIVEL, III CICLO, IV CICLO, PRIMARIA REGULAR",Boaco,Boaco,11,100
INSTITUTO NACIONAL PUBLICO DE BOACO ROSA CERDA AMADOR,12.47523000,-85.64602000,CARRETERA  AL ATLANTICO FTE. A CERVECERIA VICTORIA.,SECUNDARIA REGULAR,Boaco,Boaco,11,100
CENTRO ESCOLAR ANGELITA ROBLETO BARQUERO.,12.46740800,-85.66105000,DETRÁS DEL HOSPITAL JOSE NIEWROSKI.,"PREESCOLAR FORMAL MULTINIVEL, PRIMARIA REGULAR",Boaco,Boaco,11,100
CENTRO ESCOLAR JUANA SOLBALVARRO,12.46953000,-85.65738000,COSTADO NORTE DEL MERCADO MUNICIPAL.,"Primaria Comunitaria JYA, PREESCOLAR FORMAL, ALFABETIZACION, PRIMARIA REGULAR",Boaco,Boaco,11,100
CENTRO ESCOLAR EMILIO SOBALVARRO SUAREZ.,12.47140000,-85.66042000,CRUZ ROJA UNA CUADRA AL OESTE.,"PRIMARIA REGULAR, PREESCOLAR COMUNITARIO, SECUNDARIA POR ENCUENTRO, PREESCOLAR FORMAL MULTINIVEL",Boaco,Boaco,11,100
SAGRADO CORAZON DE JESUS,12.47310000,-85.66200000,CONTIGUO AL C DE C Y EVENTOS.,"PREESCOLAR FORMAL MULTINIVEL, PRIMARIA REGULAR",Boaco,Boaco,11,100
AMINA AUXILIADORA ABDALLAH ALEMAN.,12.61600000,-85.36419000,COMUNIDAD EL CONGO VILLA LA VEGA.,"PRIMARIA MULTIGRADO, PREESCOLAR COMUNITARIO MULTINIVEL",Boaco,Boaco,11,100
CENTRO ESCOLAR CARLOS MEJIA GODOY.,12.44250000,-85.67060000,5 KMS. AL SUR DE BOACO.,"PRIMARIA MULTIGRADO, PREESCOLAR COMUNITARIO MULTINIVEL",Boaco,Boaco,11,100
CENTRO ESCOLAR MEDALLA MILAGROSA.,12.45206000,-85.63811000,CERRO LARGO 15 KM. AL SUR.,"PRIMARIA MULTIGRADO, PREESCOLAR COMUNITARIO MULTINIVEL",Boaco,Boaco,11,100
SANTA RITA (QUEBRACHITO),12.43200000,-85.66058000,COMARCA EL QUEBRACHITO.,"PRIMARIA MULTIGRADO, PREESCOLAR COMUNITARIO MULTINIVEL",Boaco,Boaco,11,100
CENTRO ESCOLAR JOSÉ CECILIO DEL VALLE.,12.41130000,-85.61230000,COMARCA TORREZ.,"PRIMARIA MULTIGRADO, PREESCOLAR COMUNITARIO",Boaco,Boaco,11,100
CENTRO ESCOLAR ANDRES CASTRO.,12.46960000,-85.58860000,14 KMS. DE BOACO CARRETERA A CAMOAPA.,"PRIMARIA MULTIGRADO, PREESCOLAR COMUNITARIO MULTINIVEL",Boaco,Boaco,11,100
CENTRO ESCOLAR JOSÉ DE LA CRUZ MENA.,12.47455000,-85.56549000,DE LA CAPILLA CATOLICA 200 VRS CARRETERA A CAMOAPA.,"PREESCOLAR COMUNITARIO MULTINIVEL, PRIMARIA MULTIGRADO",Boaco,Boaco,11,100
CENTRO ESCOLAR SAN LUIS.,12.46924000,-85.61326000,9 KM. DE BOACO ESTE.,"PRIMARIA MULTIGRADO, PREESCOLAR COMUNITARIO MULTINIVEL",Boaco,Boaco,11,100
CENTRO ESCOLAR ASUNCIÒN ARMENGOL ORTIZ.,12.44269000,-85.60624000,AL SUR 18 KM. CARRETERA A CAMOAPA.,"PRIMARIA MULTIGRADO, PREESCOLAR COMUNITARIO MULTINIVEL",Boaco,Boaco,11,100
CENTRO ESCOLAR LEOVIJILDO JIRÒN PAZ.,12.42518000,-85.58017000,BUENA VISTA # 1.,"PREESCOLAR COMUNITARIO MULTINIVEL, PREESCOLAR COMUNITARIO, PRIMARIA MULTIGRADO",Boaco,Boaco,11,100
CENTRO ESCOLAR SAN FRANCISCO DE ASIS.,12.48133000,-85.54134100,"ESC,  TULE ORIENTAL.","ALFABETIZACION, PRIMARIA REGULAR, PRIMARIA MULTIGRADO, PREESCOLAR COMUNITARIO MULTINIVEL, III CICLO",Boaco,Boaco,11,100
CENTRO ESCOLAR CONCEPCIÒN DE MARIA.,12.47212000,-85.53586000,DEL CENTRO ROBERTO GUILLEN B. 3 KMS AL OESTE.,"PRIMARIA MULTIGRADO, PREESCOLAR COMUNITARIO MULTINIVEL",Boaco,Boaco,11,100
CENTRO ESCOLAR SALVADORA CASTILLO.,12.49103000,-85.50375000,DE LA CAPILLA SANTA MARIA LA REYNA 300 MTS AL ESTE.,"PRIMARIA MULTIGRADO, PREESCOLAR COMUNITARIO MULTINIVEL",Boaco,Boaco,11,100
CENTRO ESCOLAR CRISTO REY.,12.61028300,-85.54089100,A 35 KM. FUERA DE BOACO CARRETERA A RIO BLANCO.,"PREESCOLAR COMUNITARIO MULTINIVEL, PRIMARIA MULTIGRADO, PRIMARIA REGULAR",Boaco,Boaco,11,100
CENTRO ESCOLAR SANTA TERESA.,12.61028300,-85.54089100,KILOMETRO 25 CARRETERA A RIO BLANCO.,"SECUNDARIA POR ENCUENTRO, PREESCOLAR COMUNITARIO MULTINIVEL, PRIMARIA MULTIGRADO",Boaco,Boaco,11,100
SAN MIGUEL DE SACAL,12.51852000,-85.57665000,15 KM. CARRETERA A RIO BLANCO.,"SECUNDARIA REGULAR, PREESCOLAR COMUNITARIO MULTINIVEL, SECUNDARIA EN EL CAMPO, PRIMARIA MULTIGRADO",Boaco,Boaco,11,100
CENTRO ESCOLAR SAN FRANCISCO DE AZIS,12.65680000,-85.57153000,COMUNIDAD DE WIWAS Nº 1.,PRIMARIA MULTIGRADO,Boaco,Boaco,11,100
CENTRO ESCOLAR RAFAELA HERRERA.,12.52388000,-85.52262000,24 KM AL ESTE.,"PRIMARIA MULTIGRADO, PREESCOLAR COMUNITARIO MULTINIVEL, III CICLO",Boaco,Boaco,11,100
SANTA ROSA DE SACAL,12.51381200,-85.55565300,SANTA ROSA SACAL A 20 KM..,"PREESCOLAR COMUNITARIO MULTINIVEL, PRIMARIA MULTIGRADO",Boaco,Boaco,11,100
SAN JOSE DE SACAL,12.62827000,-85.52131000,SANTA ROSA DE SACAL A 20 KM..,"PRIMARIA MULTIGRADO, PREESCOLAR COMUNITARIO MULTINIVEL",Boaco,Boaco,11,100
CENTRO ESCOLAR SAN JERÓNIMO.,12.49820000,-85.53876000,HACIENDA LOS LAURELES.,"PRIMARIA MULTIGRADO, PREESCOLAR COMUNITARIO MULTINIVEL",Boaco,Boaco,11,100
CENTRO ESCOLAR PEDRO JOAQUIN CHAMORRO.,12.49930000,-85.51414000,CUADRO DE BASSEBALL 25 VRS. AL SUR.,"PREESCOLAR COMUNITARIO MULTINIVEL, SECUNDARIA POR ENCUENTRO, PRIMARIA REGULAR, PRIMARIA MULTIGRADO",Boaco,Boaco,11,100
CENTRO ESCOLAR VICTORIA MOLINA TINOCO.,12.51078000,-85.49573000,COOP. ARGELIA 2 KM. AL ESTE.,"PREESCOLAR COMUNITARIO MULTINIVEL, III CICLO, ALFABETIZACION, PRIMARIA REGULAR, PRIMARIA MULTIGRADO",Boaco,Boaco,11,100
CENTRO ESCOLAR DR. JAIME INCER BARQUERO.,12.57573000,-85.50175000,CARRETERA A LAS MERCEDES.,"PREESCOLAR COMUNITARIO MULTINIVEL, PRIMARIA MULTIGRADO",Boaco,Boaco,11,100
SAN ISIDRO,12.55529000,-85.49109000,SAN ISIDRO.,"PRIMARIA MULTIGRADO, PREESCOLAR COMUNITARIO MULTINIVEL",Boaco,Boaco,11,100
SAN ANDRES ALTO,12.56237000,-85.57460000,5  KMS. ALNORTE DE LA COMUNIDAD EL PARAISO.,"PREESCOLAR COMUNITARIO MULTINIVEL, PRIMARIA MULTIGRADO",Boaco,Boaco,11,100
CENTRO ESCOLAR EDGAR SANTA MARIA.,12.59505000,-85.60890000,CARRETERA A KUMAICA SUR KILOMETRO 20.,"PRIMARIA MULTIGRADO, PREESCOLAR COMUNITARIO MULTINIVEL",Boaco,Boaco,11,100
CENTRO ESCOLAR SAN JOSE DE BAGUAS,12.60037800,-85.49390000,CARRETERA A  LA VEGA.,"PREESCOLAR COMUNITARIO MULTINIVEL, PRIMARIA MULTIGRADO",Boaco,Boaco,11,100
CENTRO ESCOLAR EMILIO VILLATORO OBANDO.,12.68639000,-85.29427000,SAN JOSE DE LA VEGA.,"III CICLO, PREESCOLAR COMUNITARIO MULTINIVEL, IV CICLO, PRIMARIA MULTIGRADO",Boaco,Boaco,11,100
CENTRO ESCOLAR 15 DE SEPTIEMBRE.,12.63638000,-85.47416000,CARRETERA QUE CONDUCE A LA VEGA.,"PRIMARIA MULTIGRADO, PREESCOLAR COMUNITARIO MULTINIVEL",Boaco,Boaco,11,100
CENTRO ESCOLAR JOSÉ DOLORES ESTRADA.,12.61974600,-85.50277800,COMUNIDAD BAGUAS ENTRADA EL PORTILLO.,"PRIMARIA MULTIGRADO, PREESCOLAR COMUNITARIO MULTINIVEL",Boaco,Boaco,11,100
CENTRO ESCOLAR JESUS DE NAZARETH.,12.64049100,-85.43734100,SANTA ELISA.,"PRIMARIA MULTIGRADO, SECUNDARIA POR ENCUENTRO, PREESCOLAR COMUNITARIO MULTINIVEL",Boaco,Boaco,11,100
CENTRO ESCOLAR GALA DEL SOCORRO LOPEZ.,12.60117600,-85.39496000,LAS BRISAS CARRETERA A LA VEGA.,"PREESCOLAR COMUNITARIO MULTINIVEL, SECUNDARIA POR ENCUENTRO, ALFABETIZACION, PRIMARIA MULTIGRADO",Boaco,Boaco,11,100
CENTRO ESCOLAR EVARISTO GARCIA MONTANO.,12.66777500,-85.31603300,CARRETERA A SAN JOSE DE LA VEGA.,"PREESCOLAR COMUNITARIO MULTINIVEL, PRIMARIA MULTIGRADO",Boaco,Boaco,11,100
CENTRO ESCOLAR SAN JUAN.,12.69247000,-85.45506000,TABACAL SUR.,PRIMARIA MULTIGRADO,Boaco,Boaco,11,100
CENTRO ESCOLAR TABACAL NORTE MIGUEL LARREYNAGA,12.70672000,-85.40733000,TABACAL SAN PABLO.,"PRIMARIA MULTIGRADO, PREESCOLAR COMUNITARIO MULTINIVEL",Boaco,Boaco,11,100
CENTRO ESCOLAR ENMANUEL MONGALO.,12.59138600,-85.37707100,CARRETERA LA VEGA EMPALME EL CONGO.,"PRIMARIA MULTIGRADO, PREESCOLAR COMUNITARIO MULTINIVEL",Boaco,Boaco,11,100
SAN NICOLAS,12.48924000,-85.65303000,CARRETERA A SAN BUENA VENTURA.,"III CICLO, PRIMARIA REGULAR, IV CICLO, PREESCOLAR FORMAL MULTINIVEL, PRIMARIA MULTIGRADO",Boaco,Boaco,11,100
CENTRO ESCOLAR ANDRÉS GONZÁLES CASTILLO.,12.60148000,-85.64371000,CAPITAN Nº 1.,"PRIMARIA MULTIGRADO, PREESCOLAR COMUNITARIO MULTINIVEL",Boaco,Boaco,11,100
SAN JUAN BAUTISTA,12.50198000,-85.63956000,FTE. A LA BASE MILITAR.,"PRIMARIA MULTIGRADO, PREESCOLAR COMUNITARIO MULTINIVEL",Boaco,Boaco,11,100
TASWA SAN RAMON,12.57587000,-85.63613000,TIENDA CAMPESINA 5 C. AL OESTE.,"PREESCOLAR COMUNITARIO MULTINIVEL, PRIMARIA MULTIGRADO",Boaco,Boaco,11,100
CENTRO ESCOLAR SANTA SOFIA.,12.60968000,-85.59299000,COMARCA TASWA #2.,"PREESCOLAR COMUNITARIO, PRIMARIA MULTIGRADO",Boaco,Boaco,11,100
CENTRO ESCOLAR OLIVIA SOMOZA,12.53566000,-85.62746000,FTE. A CASA DE BAYARDO ROBLETO.,"PRIMARIA MULTIGRADO, PREESCOLAR COMUNITARIO MULTINIVEL, SECUNDARIA EN EL CAMPO",Boaco,Boaco,11,100
CENTRO ESCOLAR JESUS DE LAS BUENAS ESPERANZA.,12.62053000,-85.63028300,CARRETERA A CUMAICA SUR.,"PRIMARIA MULTIGRADO, PREESCOLAR COMUNITARIO MULTINIVEL",Boaco,Boaco,11,100
CENTRO ESCOLAR LETICIA SOTELO CORONADO.,12.51834200,-85.65279400,COMARCA SAGUATEPE.,"PRIMARIA MULTIGRADO, PREESCOLAR COMUNITARIO MULTINIVEL",Boaco,Boaco,11,100
CENTRO ESCOLAR MONSEÑOR RAFAEL OBREGÒN.,12.51792000,-85.61118000,BASE MILITAR 4 KM. AL ESTE.,"PREESCOLAR COMUNITARIO MULTINIVEL, PRIMARIA MULTIGRADO",Boaco,Boaco,11,100
CENTRO ESCOLAR SAN JORGE.,12.52273000,-85.60789000,ENTRADA AL BALSAMO KM 13½ SAN BUENAVENTURA.,"PREESCOLAR COMUNITARIO MULTINIVEL, PRIMARIA MULTIGRADO",Boaco,Boaco,11,100
SAN ANDRES BAJO,12.57408000,-85.60544000,COMARCA SAN ANDRES BAJO.,"PREESCOLAR COMUNITARIO MULTINIVEL, PRIMARIA MULTIGRADO",Boaco,Boaco,11,100
CENTRO ESCOLAR SAN MARTIN,12.63284000,-85.60600000,CASA DE AGUSTIN URBINA 120 VRS. AL NORTE.,"PRIMARIA MULTIGRADO, PREESCOLAR COMUNITARIO MULTINIVEL",Boaco,Boaco,11,100
CENTRO ESCOLAR SIMÒN BOLIVAR.,12.61041000,-85.65632000,COMARCA EL BEJUCO.,"PREESCOLAR COMUNITARIO, PRIMARIA MULTIGRADO",Boaco,Boaco,11,100
SALOMÓN DE LA SELVA (EL TRAPICHITO),12.69888000,-85.38485000,"CTRA. A SAN JOSE LA VEGA, ENTRADA A LOS TABACALES.","III CICLO, PRIMARIA MULTIGRADO, PREESCOLAR COMUNITARIO MULTINIVEL",Boaco,Boaco,11,100
CENTRO ESCOLAR MARIA AUXILIADORA.,12.45580000,-85.53331000,VILLA BOACO VIEJO.,"III CICLO, IV CICLO, PRIMARIA REGULAR, SECUNDARIA REGULAR, PREESCOLAR FORMAL MULTINIVEL",Boaco,Boaco,11,100
RUBEN DARIO,12.69537000,-85.54693000,FTE. AL CENTRO DE SALUD.,"PREESCOLAR FORMAL MULTINIVEL, SECUNDARIA REGULAR, PRIMARIA REGULAR",Boaco,Boaco,11,100
SANTA JUANA,12.56533000,-85.62700000,CARRETERA A CUMAICA.,"PREESCOLAR COMUNITARIO MULTINIVEL, PRIMARIA MULTIGRADO, ALFABETIZACION",Boaco,Boaco,11,100
PRE ESCOLAR TULIA C. BARQUERO (MAURICIO DUARTE),12.47267000,-85.66118000,POLICIA NAC. ½ C. AL OESTE.,PREESCOLAR FORMAL,Boaco,Boaco,11,100
CENTRO ESCOLAR JOAQUIN PASOS.,12.56257000,-85.45124000,34 KM. AL ESTE.,"PRIMARIA MULTIGRADO, PREESCOLAR COMUNITARIO MULTINIVEL, SECUNDARIA EN EL CAMPO, III CICLO, ALFABETIZACION, PRIMARIA REGULAR",Boaco,Boaco,11,100
EL JORDAN,12.46930000,-85.65890000,PROFAMILIA 25 VRS. AL NORTE.,"PREESCOLAR FORMAL MULTINIVEL, SECUNDARIA REGULAR, PRIMARIA REGULAR",Boaco,Boaco,11,100
CENTRO ESCOLAR CELESTINA ROBLETO.,12.57101500,-85.54355100,22 KM. AL ESTE DE BOACO.,"PREESCOLAR COMUNITARIO MULTINIVEL, III CICLO, IV CICLO, PRIMARIA MULTIGRADO",Boaco,Boaco,11,100
CENTRO ESCOLAR ROBERTO GUILLEN BARQUERO.,12.47510200,-85.51898100,BOACO VIEJO CARRETERA A  LA REYNA  Nº 1.,"PRIMARIA MULTIGRADO, PREESCOLAR COMUNITARIO MULTINIVEL",Boaco,Boaco,11,100
CENTRO ESCOLAR SANTA INES (AMALIA MIRANDA.),12.39338000,-85.62516000,COMARCA SANTA INES FTE. A LA IGLESIA.,"SECUNDARIA EN EL CAMPO, PRIMARIA MULTIGRADO, PREESCOLAR FORMAL MULTINIVEL",Boaco,Boaco,11,100
CENTRO ESCOLAR CRISTOBAL CALERO.,12.68543600,-85.36571000,COMARCA LA REFORMA.,"PREESCOLAR COMUNITARIO MULTINIVEL, PRIMARIA MULTIGRADO",Boaco,Boaco,11,100
CENTRO ESCOLAR SANTOS ALFONZO HURTADO GARCIA,12.63314000,-85.33360000,CAÑO BLANCO #1 CARRETERA A LA VEGA.,"PRIMARIA MULTIGRADO, PREESCOLAR COMUNITARIO MULTINIVEL",Boaco,Boaco,11,100
CENTRO ESCOLAR SAN ANTONIO LOS RODRIGUEZ.,12.55664000,-85.53085000,COMARCA LOS RODRIGUEZ.,"PRIMARIA MULTIGRADO, PREESCOLAR COMUNITARIO MULTINIVEL",Boaco,Boaco,11,100
CENTRO ESCOLAR AZARIAS H. PALLAIS.,12.48843000,-85.60949000,LAS CAÑAS 8 KM. AL OESTE DE BOACO.,"PRIMARIA MULTIGRADO, PREESCOLAR COMUNITARIO MULTINIVEL",Boaco,Boaco,11,100
CENTRO ESCOLAR FRANCISCO SALGADO SEQUEIRA.,12.65963800,-85.44519000,COMUNIDAD TABACAL NORTE.,PRIMARIA MULTIGRADO,Boaco,Boaco,11,100
COLEGIO SAN VICENTE DE PAUL,12.47320000,-85.66280000,ENACAL 30 VRS. AL NORTE.,"PREESCOLAR FORMAL, SECUNDARIA REGULAR, PREESCOLAR FORMAL MULTINIVEL, PRIMARIA REGULAR",Boaco,Boaco,11,100
CENTRO ESCOLAR ALFONZO CORTÉZ.,12.65285900,-85.39348000,CARRETERA A LA REFORMA.,"PREESCOLAR COMUNITARIO, PRIMARIA A DISTANCIA EN EL CAMPO, PRIMARIA MULTIGRADO",Boaco,Boaco,11,100
CENTRO ESCOLAR JOSÉ DOMINGO SEGURA,12.51433000,-85.45952000,FINCA SANTA BARBARA 4 KM. AL NORTE.,"PRIMARIA MULTIGRADO, PREESCOLAR COMUNITARIO MULTINIVEL",Boaco,Boaco,11,100
CENTRO ESCOLAR ARMANDO INCER BARQUERO.,12.55004700,-85.64082000,COMARCA ALTOS DE SAN BUENAVENTURA.,"PRIMARIA MULTIGRADO, PREESCOLAR COMUNITARIO MULTINIVEL",Boaco,Boaco,11,100
CENTRO ESCOLAR MIGUEL FLORES.,12.43749000,-85.57442000,WIRRUCA.,"PRIMARIA MULTIGRADO, PREESCOLAR COMUNITARIO MULTINIVEL",Boaco,Boaco,11,100
CENTRO ESCOLAR 14 DE SEPTIEMBRE.,12.65570000,-85.59863000,WIWAS Nº 2.,PRIMARIA MULTIGRADO,Boaco,Boaco,11,100
CENTRO ESCOLAR SAN JOSÉ RIO NEGRO.,12.55627000,-85.41102000,CARRETERA A RIO NEGRO.,"PRIMARIA MULTIGRADO, PREESCOLAR COMUNITARIO MULTINIVEL",Boaco,Boaco,11,100
CENTRO ESCOLAR LUIS ALFONSO SOTELO HERNADEZ (EL JABILLO),12.61374000,-85.32164000,COMUNIDAD EL JABILLO.,"PREESCOLAR COMUNITARIO, PRIMARIA MULTIGRADO",Boaco,Boaco,11,100
CENTRO ESCOLAR CORAZON DE MARIA.,12.61516000,-85.56202000,COMARCA EL PUEBLITO DEL PORTON 4 KMS AL NOROESTE.,"PREESCOLAR COMUNITARIO MULTINIVEL, PRIMARIA MULTIGRADO",Boaco,Boaco,11,100
CENTRO ESCOLAR JOSEFA DOLORES CAMPOS.,12.49293000,-85.55917000,ENTRADA HACENDO ENRIQUE 5 KM. AL SUR.,"PREESCOLAR COMUNITARIO MULTINIVEL, EBA, PRIMARIA MULTIGRADO",Boaco,Boaco,11,100
MIGUEL OBANDO BRAVO,12.60132800,-85.62422000,CARRETERA A SAN BUENAVENTURA KM 21.,"PREESCOLAR COMUNITARIO MULTINIVEL, PRIMARIA MULTIGRADO",Boaco,Boaco,11,100
CENTRO ESCOLAR SANTA RITA (LOS PLANES),12.56736600,-85.36113500,CASERIOS LOS PLANES.,"PREESCOLAR COMUNITARIO MULTINIVEL, PRIMARIA MULTIGRADO",Boaco,Boaco,11,100
CENTRO ESCOLAR CRISTO REY (BARRIO NUEVO),12.66259000,-85.42822000,CARRETERA A LA VEGA DESVIO A Bº NUEVO DE BOACO 45 KMS.,"PREESCOLAR COMUNITARIO MULTINIVEL, PRIMARIA MULTIGRADO",Boaco,Boaco,11,100
CENTRO ESCOLAR MATÍAS ORDEÑANA,12.67605000,-85.47873000,COMARCA TABACAL SUBSÉCTOR SUR.,PRIMARIA MULTIGRADO,Boaco,Boaco,11,100
CENTRO ESCOLAR NIÑO JESÚS DE PRAGA,12.69219000,-85.42735000,TABACAL CENTRAL.,"PRIMARIA MULTIGRADO, PREESCOLAR COMUNITARIO MULTINIVEL, ALFABETIZACION",Boaco,Boaco,11,100
LA ESPERANZA,12.65536000,-85.62159000,COMARCA EL CAPITAN SECTOR CERRO GRANDE.,"PRIMARIA MULTIGRADO, PREESCOLAR COMUNITARIO",Boaco,Boaco,11,100
SAN FELIPE (FILAS DE BAGUAS),12.61244000,-85.46172000,FILAS DE BAGUAS.,"PRIMARIA MULTIGRADO, PREESCOLAR COMUNITARIO MULTINIVEL",Boaco,Boaco,11,100
SAN PABLO,12.64306000,-85.29412000,CARRETERA A LA VEGA ENTRADA AL ARENAL.,"PRIMARIA MULTIGRADO, PREESCOLAR COMUNITARIO MULTINIVEL",Boaco,Boaco,11,100
VIRGEN DE GUADALUPE,12.52908100,-85.64302800,CERRO GRANDE.,"PRIMARIA MULTIGRADO, PREESCOLAR COMUNITARIO MULTINIVEL",Boaco,Boaco,11,100
NUESTRA SEÑORA DEL CARMEN,12.53429300,-85.49525000,COMARCA SAN ISIDRO #2.,"PRIMARIA MULTIGRADO, PREESCOLAR COMUNITARIO MULTINIVEL",Boaco,Boaco,11,100
SAN MARCOS,12.60778000,-85.35115000,CARRETERA A LA VEGA DE BOACO A 62 KM.,"PREESCOLAR COMUNITARIO, PRIMARIA MULTIGRADO",Boaco,Boaco,11,100
ESCUELA ESPECIAL LIDIA VALDIVIA,12.47040000,-85.66225000,COLEGIO EMILIO SOBALVARRO 3C AL OESTE.,"INCLUSION SOCIO LABORAL, EDUCACION TEMPRANA, PREES. FORMAL EN EDUC. ESPECIAL, PRIM. REGULAR EN EDUC. ESPECIAL",Boaco,Boaco,11,100
SAN SEBASTÍAN,12.69932000,-85.49445000,CARRETERA RÍO BLANCO.,"PRIMARIA MULTIGRADO, PREESCOLAR COMUNITARIO MULTINIVEL",Boaco,Boaco,11,100
SALOMON IBARRA MAYORGA,12.61431300,-85.61712800,FILAS VERDE SECTOR PIEDRA SEMBRADA.,"PREESCOLAR COMUNITARIO, PRIMARIA MULTIGRADO",Boaco,Boaco,11,100
REYNA ISABEL TERMINIO MENDEZ,12.47650000,-85.65402000,CASA COMUNAL.,"PREESCOLAR COMUNITARIO MULTINIVEL, PRIMARIA MULTIGRADO",Boaco,Boaco,11,100
SUSANA MARIA GOMEZ MENDOZA,12.48113500,-85.64793100,FRENTE A LA BARRERA.,"PRIMARIA MULTIGRADO, PREESCOLAR COMUNITARIO MULTINIVEL",Boaco,Boaco,11,100
CENTRO ESCOLAR DOCTOR MOISES SOTELO,12.55114000,-85.42861000,40 KMS CARRETERA A RIO NEGRO.,"PREESCOLAR COMUNITARIO MULTINIVEL, PRIMARIA MULTIGRADO",Boaco,Boaco,11,100
CENTRO ESCOLAR JUAN BAUTISTA ARRIEN,12.43839000,-85.63063000,LAS CAÑITAS.,PRIMARIA MULTIGRADO,Boaco,Boaco,11,100
CARLOS FONSECA,12.56928000,-85.58577000,SAN ANDRES BAJO NO. 2.,"PRIMARIA MULTIGRADO, PREESCOLAR COMUNITARIO",Boaco,Boaco,11,100
CENTRO ESCOLAR NORMAN ARROLIGA,12.60303000,-85.30467000,IGLESIA EL BUEN PASTOR.,"PREESCOLAR COMUNITARIO MULTINIVEL, PRIMARIA MULTIGRADO",Boaco,Boaco,11,100
MIGUEL DE CASTILLA,12.54742000,-85.37926000,CARRETERA DE RIO NEGRO.,"PRIMARIA MULTIGRADO, PREESCOLAR COMUNITARIO MULTINIVEL",Boaco,Boaco,11,100
ORLANDO PINEDA,12.58124600,-85.40137000,MIRAFLOR.,PRIMARIA MULTIGRADO,Boaco,Boaco,11,100
GERMAN POMARES ORDOÑEZ,12.67481100,-85.51298900,CARRETERA A RIO BLANCO.,PRIMARIA MULTIGRADO,Boaco,Boaco,11,100
FLAVIO CESAR TIJERINO,12.52007000,-85.44471000,DE LA IGLESIA DE DIOS 300MTS AL OESTE.,"PRIMARIA MULTIGRADO, PREESCOLAR COMUNITARIO MULTINIVEL",Boaco,Boaco,11,100
FELIPE BORGE,12.58401400,-85.32793300,EL JOBILLO.,PRIMARIA MULTIGRADO,Boaco,Boaco,11,100
SAN VICENTE NO.3,12.53743000,-85.47248000,SECTOR SAN VICENTE.,"PRIMARIA MULTIGRADO, PREESCOLAR COMUNITARIO MULTINIVEL",Boaco,Boaco,11,100
ALCIDES MIRANDA,12.64148000,-85.55580000,WIWAS NO.1.,"PREESCOLAR COMUNITARIO MULTINIVEL, PRIMARIA MULTIGRADO",Boaco,Boaco,11,100
GEORGINO ANDRADE,12.62185000,-85.51931000,CARRETERA A SAN JOSE DE LA VEGA.,"PRIMARIA MULTIGRADO, PREESCOLAR COMUNITARIO MULTINIVEL",Boaco,Boaco,11,100
SAN JOSE OBRERO,12.38782000,-85.60007000,EL CACAO.,"PRIMARIA MULTIGRADO, PREESCOLAR COMUNITARIO MULTINIVEL",Boaco,Boaco,11,100
AUGUSTO C. SANDINO,12.58917000,-85.51788000,DE LA ESC. BASE 8KMS CARRETERA  RIO NEGRO.,"PREESCOLAR COMUNITARIO MULTINIVEL, PRIMARIA MULTIGRADO",Boaco,Boaco,11,100
PROF. JULIO CESAR SANDOVAL,12.62540900,-85.42327600,SANTA FE.,"PRIMARIA MULTIGRADO, PREESCOLAR COMUNITARIO MULTINIVEL",Boaco,Boaco,11,100
CENTRO ESCOLAR SAN PEDRO DE SACAL,12.53966100,-85.52136000,.,"PRIMARIA MULTIGRADO, PREESCOLAR COMUNITARIO MULTINIVEL",Boaco,Boaco,11,100
PREESCOLAR EL SOCORRO,12.48950000,-85.67996000,ANTIGUA FINCA DE FCO.MARTINEZ 200MTS AL NORTE.,"PRIMARIA MULTIGRADO, PREESCOLAR COMUNITARIO MULTINIVEL",Boaco,Boaco,11,100
PREESCOLAR ANGELITA SOBALVARRO MORENO,12.46720000,-85.66110000,CONTIGUO A L A ESCUELA ESPECIAL.,PREESCOLAR FORMAL,Boaco,Boaco,11,100
PREESCOLAR LAS NUBES,12.58506500,-85.49876300,FINCA CHAYOTEPE 3KM AL OESTE.,"PREESCOLAR COMUNITARIO, PRIMARIA MULTIGRADO",Boaco,Boaco,11,100
CENTRO EDUCATIVO PRIVADO LA PROVIDENCIA,12.49025700,-85.65160600,CONTIGUO A LA PARROQUIA JUAN PABLO II.,"PRIMARIA REGULAR, PREESCOLAR FORMAL, SECUNDARIA REGULAR",Boaco,Boaco,11,100
CENTRO ESCOLAR SAN JUAN BOSCO.,12.40467200,-85.56941300,CONTIGUO A DONDE FUE LA COOP. DOUGLAS DUARTES.,PRIMARIA MULTIGRADO,Boaco,Boaco,11,100
ESCUELA LODO NEGRO,12.40361200,-85.58986100,LODO NEGRO.,"EBA, PRIMARIA MULTIGRADO, PREESCOLAR COMUNITARIO MULTINIVEL",Boaco,Boaco,11,100
CENTRO ESCOLAR JULIANA LÒPEZ PÉREZ.,12.42794700,-85.55420000,FINCA DE RITO SANCHEZ.,"EBA, PREESCOLAR COMUNITARIO MULTINIVEL, PRIMARIA MULTIGRADO, Primaria Comunitaria JYA",Boaco,Boaco,11,100
CENTRO ESCOLAR SAN RAFAEL.,12.46111500,-85.49987000,FINCA DE PAYO MOLINA.,"EBA, PRIMARIA MULTIGRADO",Boaco,Boaco,11,100
CENTRO ESCOLAR ESPERANZA SEQUEIRA.,12.49020000,-85.47348000,FINCA DE NERIS CERDA.,PRIMARIA MULTIGRADO,Boaco,Boaco,11,100
CENTRO ESCOLAR NUESTRA SEÑORA DE GUADALUPE.,12.47960000,-85.43071000,CONTIGUO A LA FINCA DE JOSE HURTADO.,"PREESCOLAR COMUNITARIO MULTINIVEL, PRIMARIA MULTIGRADO",Boaco,Boaco,11,100
ESCUELA RUBEN DARIO,12.61038300,-85.28503600,FINCA SAN PATRICIO.,"EBA, IV CICLO, PRIMARIA MULTIGRADO, PREESCOLAR COMUNITARIO MULTINIVEL",Boaco,Boaco,11,100
ESCUELA ENMANUEL MONGALO,12.57750000,-85.30249800,FINCA NIDO DE AGUILA.,"PRIMARIA MULTIGRADO, PREESCOLAR COMUNITARIO MULTINIVEL",Boaco,Boaco,11,100
CENTRO ESCOLAR SAN ISIDRO,12.50597000,-85.44109000,COMARCA SALGADO Nº 2.,"PREESCOLAR COMUNITARIO MULTINIVEL, PRIMARIA MULTIGRADO",Boaco,Boaco,11,100
CENTRO ESCOLAR AGUSTINA MIRANDA DE QUEZADA,12.38244000,-85.51794000,C/SALUD 4 C. AL OESTE.,"PREESCOLAR FORMAL MULTINIVEL, PRIMARIA REGULAR, PRIM. MULTIGRADO EN EDUC. ESPECIAL",Boaco,Camoapa,11,101
JARDÍN INFANTIL BAMBI,12.38340000,-85.51050000,BAMBI.,"PREESCOLAR FORMAL MULTINIVEL, PRIMARIA REGULAR",Boaco,Camoapa,11,101
INSTITUTO NACIONAL DE CAMOAPA MANUEL SALVADOR GUADAMUZ GONZALEZ,12.37820000,-85.51403000,SALIDA A COMALAPA.,"SECUNDARIA REGULAR, SECUNDARIA POR ENCUENTRO",Boaco,Camoapa,11,101
COLEGIO SAN FRANCISCO DE ASIS,12.38210000,-85.51050000,FTE. A FARMACIA EL CARMEN.,"SECUNDARIA REGULAR, PRIMARIA REGULAR, PREESCOLAR FORMAL MULTINIVEL, SECUNDARIA POR ENCUENTRO",Boaco,Camoapa,11,101
CENTRO ESCOLAR JUAN MARIA DUARTE F.,12.38315000,-85.50874000,PARQUE 3 C. AL ESTE 1½ AL SUR JUAN MARIA DUARTE.,"PREESCOLAR FORMAL MULTINIVEL, PRIMARIA REGULAR, PRIM. MULTIGRADO EN EDUC. ESPECIAL",Boaco,Camoapa,11,101
ESCUELA FRANCISCO PICADO.,12.38660000,-85.53922000,COMARCA MOMBACHO.,"IV CICLO, PREESCOLAR COMUNITARIO MULTINIVEL, III CICLO, PRIMARIA MULTIGRADO",Boaco,Camoapa,11,101
CENTRO ESCOLAR JOSEFA TOLEDO DE AGUERRI.,12.42034800,-85.52575300,PIEDRA SEMBRADA.,"PREESCOLAR COMUNITARIO MULTINIVEL, PRIMARIA MULTIGRADO",Boaco,Camoapa,11,101
CENTRO ESCOLAR SIMÒN BOLIVAR.,12.51025000,-85.39902000,COMUNIDAD YALGUA.,"PRIMARIA MULTIGRADO, PREESCOLAR COMUNITARIO MULTINIVEL, EBA",Boaco,Camoapa,11,101
CENTRO ESCOLAR JOSÉ MARTÍ,12.45667000,-85.46424000,COMUNIDAD YALGUA.,"PREESCOLAR COMUNITARIO MULTINIVEL, PRIMARIA MULTIGRADO",Boaco,Camoapa,11,101
ESCUELA CAMILO ORTEGA.,12.53405000,-85.39195000,FTE. A LA FINCA DE JOSE MURILLO.,"PREESCOLAR COMUNITARIO MULTINIVEL, PRIMARIA MULTIGRADO",Boaco,Camoapa,11,101
ESCUELA LAS TRINCHERAS.,12.43304100,-85.44982200,10 KMS. CARRETERA A LAS LAJAS.,"SECUNDARIA EN EL CAMPO, PREESCOLAR COMUNITARIO MULTINIVEL, PRIMARIA MULTIGRADO",Boaco,Camoapa,11,101
CENTRO ESCOLAR MADRE TERESA DE CALCUTA.,12.36430000,-85.52044000,LAGUNA NEGRO.,"PRIMARIA MULTIGRADO, PREESCOLAR COMUNITARIO MULTINIVEL",Boaco,Camoapa,11,101
CENTRO ESCOLAR SILVIA SUAREZ QUINTANA.,12.35813000,-85.49010000,COMARCA SAN ISIDRO.,"PREESCOLAR COMUNITARIO MULTINIVEL, PRIMARIA MULTIGRADO",Boaco,Camoapa,11,101
CENTRO ESCOLAR RIGOBERTO CABEZA..,12.37301700,-85.48077800,COMARCA EL AGUACATE.,"PRIMARIA MULTIGRADO, PREESCOLAR COMUNITARIO MULTINIVEL",Boaco,Camoapa,11,101
ESCUELA CATALUÑA (SALINAS),12.34876100,-85.45172000,COMARCA SALINAS.,"SECUNDARIA EN EL CAMPO, PREESCOLAR COMUNITARIO MULTINIVEL, EBA, Primaria Comunitaria JYA, PRIMARIA MULTIGRADO",Boaco,Camoapa,11,101
CENTRO ESCOLAR BENITO SÁNDIGO ARAUZ.,12.36952400,-85.44496100,COMARCA TESORO.,"PRIMARIA MULTIGRADO, SECUNDARIA EN EL CAMPO, PREESCOLAR COMUNITARIO MULTINIVEL",Boaco,Camoapa,11,101
CENTRO ESCOLAR CACIQUE TAISIGUE.,12.38564900,-85.37793600,CACIQUE TAISIGUA.,"PRIMARIA MULTIGRADO, PREESCOLAR COMUNITARIO MULTINIVEL",Boaco,Camoapa,11,101
CENTRO ESCOLAR CRISTO REY.,12.48484300,-85.34979500,CRISTO REY CARRETERA CAMP. LA EMBAJADA KM. 25.,"EBA, PREESCOLAR COMUNITARIO MULTINIVEL, PRIMARIA MULTIGRADO, Primaria Comunitaria JYA",Boaco,Camoapa,11,101
CENTRO ESCOLAR ALEXIS ARGUELLO.,12.46401600,-85.33519100,FTE. AL CENTRO DE SALUD.,"EBA, SECUNDARIA POR ENCUENTRO, PREESCOLAR COMUNITARIO MULTINIVEL, PRIMARIA MULTIGRADO",Boaco,Camoapa,11,101
ESCUELA SALOMÒN DE LA SELVA.,12.43343000,-85.37742000,15 KMS. CARRETERA CAMOAPA LA CALAMIDAD.,"PRIMARIA MULTIGRADO, PREESCOLAR COMUNITARIO MULTINIVEL",Boaco,Camoapa,11,101
ESCUELA SAN PEDRO,12.54587400,-85.13521300,FINCA EL DESCANSO.,"EBA, PREESCOLAR COMUNITARIO MULTINIVEL, PRIMARIA MULTIGRADO, Primaria Comunitaria JYA",Boaco,Camoapa,11,101
CENTRO ESCOLAR PRIMERO DE MAYO.,12.56812000,-85.17587000,FINCA LOS CERRITOS.,PRIMARIA MULTIGRADO,Boaco,Camoapa,11,101
CENTRO ESCOLAR SAN ANTONIO.,12.74897500,-85.10000800,SAN ANTONIO.,"EBA, PREESCOLAR COMUNITARIO MULTINIVEL, PRIMARIA MULTIGRADO",Boaco,Camoapa,11,101
ESCUELA INMACULADA CONCEPCION,12.58995000,-85.15092000,FINCA LA MEDALLA.,"PRIMARIA MULTIGRADO, PREESCOLAR COMUNITARIO MULTINIVEL, III CICLO, Primaria Comunitaria JYA",Boaco,Camoapa,11,101
CENTRO ESCOLAR JOSÉ DE LA CRUZ MENA.,12.61173700,-85.21423500,COMARCA SAN JOSE DE MURRA.,"PREESCOLAR COMUNITARIO MULTINIVEL, EBA, SECUNDARIA POR ENCUENTRO, PRIMARIA MULTIGRADO",Boaco,Camoapa,11,101
ESCUELA PEDRO JOAQUIN CHAMORRO,12.54372000,-85.23990700,FINCA OCTAVIO GUILLEN EL COROZO.,"PREESCOLAR COMUNITARIO MULTINIVEL, EBA, PRIMARIA MULTIGRADO",Boaco,Camoapa,11,101
ESCUELA REPUBLICA DE VENEZUELA,12.55548000,-85.19485000,FINCA LA ESPERANZA.,PRIMARIA MULTIGRADO,Boaco,Camoapa,11,101
ESCUELA REPUBLICA DE COSTA RICA.,12.61546000,-85.04810000,COMARCA MONTES VERDES.,"PREESCOLAR COMUNITARIO MULTINIVEL, PRIMARIA MULTIGRADO",Boaco,Camoapa,11,101
ESCUELA REPUBLICA DE ESPAÑA,12.67320000,-85.03076000,TIPILMA PLATANAL NORTE.,"PREESCOLAR COMUNITARIO MULTINIVEL, PRIMARIA MULTIGRADO",Boaco,Camoapa,11,101
CENTRO ESCOLAR REPUBLICA DE MEXICO.,12.42306000,-85.41865000,COMARCA LA LAGARTERA.,"PRIMARIA MULTIGRADO, PREESCOLAR COMUNITARIO MULTINIVEL",Boaco,Camoapa,11,101
CENTRO ESCOLAR PRESBITERO HIGINIO FLETES.,12.41236000,-85.46106000,COMARCA ZARRIGO.,"PREESCOLAR COMUNITARIO MULTINIVEL, PRIMARIA MULTIGRADO",Boaco,Camoapa,11,101
CENTRO ESCOLAR 19 DE JULIO,12.67689500,-85.10658400,PLATANAR SUR.,"EBA, SECUNDARIA EN EL CAMPO, PREESCOLAR COMUNITARIO MULTINIVEL, PRIMARIA MULTIGRADO",Boaco,Camoapa,11,101
CENTRO ESCOLAR PROF: OFELIA CERRATO.,12.36077000,-85.55791000,COMARCA TONILAPA.,"PRIMARIA MULTIGRADO, PREESCOLAR COMUNITARIO",Boaco,Camoapa,11,101
CENTRO ESCOLAR PROF: ANDREA GUEVARA.,12.62344600,-85.13608400,MONTES VERDES.,"PREESCOLAR COMUNITARIO MULTINIVEL, EBA, Primaria Comunitaria JYA, PRIMARIA MULTIGRADO",Boaco,Camoapa,11,101
CENTRO ESCOLAR TINO LÒPEZ GUERRA.,12.63481000,-84.97135000,COMARCA GUAYABO.,"PREESCOLAR COMUNITARIO MULTINIVEL, III CICLO, PRIMARIA MULTIGRADO",Boaco,Camoapa,11,101
ESCUELA SAGRADA FAMILIA,12.44891900,-85.26448100,FINCA LAS MARIAS.,"PRIMARIA MULTIGRADO, PREESCOLAR COMUNITARIO MULTINIVEL",Boaco,Camoapa,11,101
ESCUELA CRISTOBAL COLON,12.64583300,-85.07388900,MONTE VERDE.,"EBA, PRIMARIA MULTIGRADO, PREESCOLAR COMUNITARIO MULTINIVEL",Boaco,Camoapa,11,101
CENTRO ESCOLAR 12 DE OCTUBRE.,12.59452700,-85.07710400,MONTES VERDES # 2.,"PRIMARIA MULTIGRADO, PREESCOLAR COMUNITARIO MULTINIVEL, EBA",Boaco,Camoapa,11,101
ESCUELA SANTA RITA.,12.37588000,-85.58472000,MOMBACHITO # 2.,"PRIMARIA MULTIGRADO, III CICLO, EBA, PREESCOLAR COMUNITARIO MULTINIVEL",Boaco,Camoapa,11,101
ESCUELA SAN JOSÉ,12.38810000,-85.27428300,FINCA LA CEIBA.,"PRIMARIA MULTIGRADO, PREESCOLAR COMUNITARIO MULTINIVEL",Boaco,Camoapa,11,101
CENTRO ESCOLAR 12 DE SEPTIEMBRE.,12.50565000,-85.27856000,PANAMERICA.,"PREESCOLAR COMUNITARIO MULTINIVEL, PRIMARIA MULTIGRADO, Primaria Comunitaria JYA",Boaco,Camoapa,11,101
CENTRO ESCOLAR HERNAN ROBLETO HUETE.,12.52318200,-85.18891800,FINCA LA MONEDA.,"PRIMARIA MULTIGRADO, EBA, PREESCOLAR COMUNITARIO MULTINIVEL",Boaco,Camoapa,11,101
ESCUELA SAN MIGUEL ARCANGEL.,12.66081800,-85.11635300,MONTE VERDE.,"PREESCOLAR COMUNITARIO MULTINIVEL, III CICLO, EBA, PRIMARIA MULTIGRADO",Boaco,Camoapa,11,101
ESCUELA JOSE DOLORES ESTRADA,12.46618000,-85.17612700,FINCA LOS CHOSMES.,"III CICLO, PREESCOLAR COMUNITARIO MULTINIVEL, IV CICLO, PRIMARIA MULTIGRADO, EBA",Boaco,Camoapa,11,101
ESCUELA SAN FRANCISCO ORIENTAL,12.52511600,-85.15524400,FINCA SAN JOSE.,"PRIMARIA MULTIGRADO, EBA, PREESCOLAR COMUNITARIO MULTINIVEL",Boaco,Camoapa,11,101
ESCUELA CACIQUE YARRINCE,12.42987000,-85.34244000,BIJAGUA.,"III CICLO, PREESCOLAR COMUNITARIO MULTINIVEL, PRIMARIA MULTIGRADO",Boaco,Camoapa,11,101
ESCUELA AMORES DEL SOL,12.43929800,-85.21130100,AMORES DEL SOL.,"PREESCOLAR COMUNITARIO MULTINIVEL, EBA, PRIMARIA MULTIGRADO",Boaco,Camoapa,11,101
CENTRO ESCOLAR MARIA AUXILIADORA.,12.50802800,-85.09492600,FINCA SAN JUAN.,"PRIMARIA MULTIGRADO, IV CICLO, III CICLO, EBA, PREESCOLAR COMUNITARIO MULTINIVEL",Boaco,Camoapa,11,101
ESCUELA FIDEL COLOMA,12.68442600,-85.14394000,PLATANAR SUR.,"PREESCOLAR COMUNITARIO MULTINIVEL, PRIMARIA MULTIGRADO",Boaco,Camoapa,11,101
ESCUELA SAN JORGE,12.66393100,-85.13564800,PLATANAR SUR.,"PRIMARIA MULTIGRADO, PREESCOLAR COMUNITARIO MULTINIVEL",Boaco,Camoapa,11,101
ESCUELA LA UNION,12.53346200,-85.34447200,ENTRADA A SANTA ELENA.,"III CICLO, PREESCOLAR COMUNITARIO, PRIMARIA MULTIGRADO",Boaco,Camoapa,11,101
CENTRO ESCOLAR UNIÒN CENTROAMERICANA.,12.52318200,-85.18891800,FINCA MARIA AUXILIADORA.,"PREESCOLAR COMUNITARIO MULTINIVEL, PRIMARIA MULTIGRADO",Boaco,Camoapa,11,101
ESCUELA SAN ANDRES,12.49059600,-85.13678800,FINCA LA ESPERANZA - CASERIO LOS LOPEZ.,"PRIMARIA MULTIGRADO, PREESCOLAR COMUNITARIO MULTINIVEL",Boaco,Camoapa,11,101
ESCUELA MIGUEL LARREYNAGA,12.71326900,-85.09063600,PLATANAR NORTE.,"EBA, PREESCOLAR COMUNITARIO MULTINIVEL, PRIMARIA MULTIGRADO",Boaco,Camoapa,11,101
COLEGIO CRISTIANO ANTORCHITA,12.38160000,-85.51400000,BARRIO GASPAR GARCIA.,"SECUNDARIA REGULAR, PRIMARIA REGULAR, PREESCOLAR FORMAL MULTINIVEL",Boaco,Camoapa,11,101
CENTRO ESCOLAR LAS MARAVILLAS DE CAMOAPA.,12.48840000,-85.31211000,FTE. HACIENDA DE LUIS FELIPE.,PRIMARIA MULTIGRADO,Boaco,Camoapa,11,101
CENTRO ESCOLAR JUSTO SANTOS.,12.56878000,-85.21313000,FINCA LUCITANIA.,"PRIMARIA MULTIGRADO, PREESCOLAR COMUNITARIO MULTINIVEL",Boaco,Camoapa,11,101
CENTRO EDUCATIVO PUBLICO PROFESORA VIOLETA CAMPOS,12.38719800,-85.51367600,BARRIO RAMON OBANDO..,PREESCOLAR COMUNITARIO MULTINIVEL,Boaco,Camoapa,11,101
ROBERTO CLEMENTE,12.63955000,-85.00171000,COMARCA TIPILMA FINCA DE DOÑA FLORENTINA BARCIA FRENTE A LA CASA.,"PRIMARIA MULTIGRADO, IV CICLO, PREESCOLAR COMUNITARIO MULTINIVEL, III CICLO, Primaria Comunitaria JYA",Boaco,Camoapa,11,101
CENTRO ESCOLAR 14 DE SEPTIEMBRE,12.52113900,-85.23291000,EN FINCA DE DON RONALDO PEREZ.,"PRIMARIA MULTIGRADO, PREESCOLAR COMUNITARIO MULTINIVEL",Boaco,Camoapa,11,101
CENTRO ESCOLAR LAS MERCEDES,12.57722200,-85.24555200,FINCA LAS MERCEDES.,"PRIMARIA MULTIGRADO, PREESCOLAR COMUNITARIO MULTINIVEL",Boaco,Camoapa,11,101
EL CASTILLO DE LA INMACULADA,12.56846300,-85.06017900,LA INMACULADA.,"PREESCOLAR COMUNITARIO MULTINIVEL, EBA, PRIMARIA MULTIGRADO",Boaco,Camoapa,11,101
LA ESPERANZA,12.42662900,-85.26463800,FINCA DON RICARDO ARAGON.,"PREESCOLAR COMUNITARIO MULTINIVEL, PRIMARIA MULTIGRADO",Boaco,Camoapa,11,101
CENTRO ESCOLAR TIERRA BLANCA,12.45315000,-85.44692000,COMARCA TIERRA BLANCA.,"EBA, PRIMARIA MULTIGRADO",Boaco,Camoapa,11,101
CENTRO ESCOLAR LUXEMBURGO,12.65027800,-85.09666400,COMARCA PLATANAR SUR.,"PRIMARIA MULTIGRADO, PREESCOLAR COMUNITARIO MULTINIVEL",Boaco,Camoapa,11,101
CENTRO ESCOLAR SAN MARCOS CCA. EL ACHIOTE,12.50981000,-85.31789000,COMUNIDAD EL ACHIOTE.,"PRIMARIA MULTIGRADO, PREESCOLAR COMUNITARIO MULTINIVEL, EBA",Boaco,Camoapa,11,101
CENTRO ESCOLAR LA CHILENA,12.49343200,-85.25077100,FRENTE FINCA LA CHILENA COMARCA ARENITA.,"PRIMARIA MULTIGRADO, EBA, SECUNDARIA EN EL CAMPO, PREESCOLAR COMUNITARIO MULTINIVEL",Boaco,Camoapa,11,101
EL PARAÍSO,12.47800200,-85.38203000,COSTADO NORTE FINCA EL NARANJO.,PRIMARIA MULTIGRADO,Boaco,Camoapa,11,101
CENTRO ESCOLAR VILLA PROGRESO,12.44538000,-85.11996000,FINCA DE DON SANTIAGO ORTEGA.,"PRIMARIA MULTIGRADO, PREESCOLAR COMUNITARIO MULTINIVEL, EBA",Boaco,Camoapa,11,101
CENTRO ESCOLAR MATAMBA,12.40975000,-85.49082000,COSTADO ESTE DE LA FINCA DE FRANCISCO GONZALEZ.,PRIMARIA MULTIGRADO,Boaco,Camoapa,11,101
CENTRO ESCOLAR SALVADORA MONCADA,12.72977000,-85.05211000,FINCA DE DENIS SEQUEIRA.,"EBA, PREESCOLAR COMUNITARIO MULTINIVEL, PRIMARIA MULTIGRADO",Boaco,Camoapa,11,101
EL MADERAL,12.39114000,-85.43093700,TESORERO.,"PREESCOLAR COMUNITARIO MULTINIVEL, PRIMARIA MULTIGRADO",Boaco,Camoapa,11,101
LA PRIMAVERA,12.70670000,-85.03274000,PLATANAR NORTE.,"EBA, PREESCOLAR COMUNITARIO MULTINIVEL, PRIMARIA MULTIGRADO",Boaco,Camoapa,11,101
NIÑO DIVINO (HOJACHIGUE),12.40949000,-85.29539000,HOJACHIGUE.,"PREESCOLAR COMUNITARIO MULTINIVEL, PRIMARIA MULTIGRADO",Boaco,Camoapa,11,101
LA UNION DEL PEDERNAL,12.45835000,-85.11176000,COSTADO SUR DEL MERCADO DEL PEDERNAL.,"EBA, PREESCOLAR COMUNITARIO MULTINIVEL, PRIMARIA MULTIGRADO",Boaco,Camoapa,11,101
CENTRO DE EDUCACIÓN DE ADULTOS (CEDA),12.37810000,-85.51751000,KM 114 CARRETERA HACIA MANAGUA.,"PRIMARIA ACELERADA(CEDA), IV CICLO, III CICLO",Boaco,Camoapa,11,101
VILLA LIBERTAD,12.65915000,-84.99066000,FINCA DE AURELIO SOTELO.,"EBA, PRIMARIA MULTIGRADO, IV CICLO, PREESCOLAR COMUNITARIO MULTINIVEL, III CICLO",Boaco,Camoapa,11,101
INES DE MONDRAGON,12.64210000,-85.13132400,FINCA DE DON MARIO BLANDON.,"PREESCOLAR COMUNITARIO MULTINIVEL, EBA, Primaria Comunitaria JYA, PRIMARIA MULTIGRADO",Boaco,Camoapa,11,101
CARDENAL MIGUEL OBANDO Y BRAVO,12.35828000,-85.43412200,FINCA DE DON POMPILIO ORTEGA.,"PRIMARIA MULTIGRADO, PREESCOLAR COMUNITARIO MULTINIVEL",Boaco,Camoapa,11,101
LEONEL NAVAS LÓPEZ,12.38590000,-85.34546000,FINCA DEL SEÑOR LAUREANO MARTINEZ.,"PREESCOLAR COMUNITARIO MULTINIVEL, PRIMARIA MULTIGRADO",Boaco,Camoapa,11,101
ALFONSO ALVARADO LUGO,12.40222000,-85.39574000,FINCA DE DON DAMASO LOPEZ.,PRIMARIA MULTIGRADO,Boaco,Camoapa,11,101
PABLO ANTONIO CUADRA,12.38442200,-85.46397400,FINCA DE REYMUNDO TORRES.,"PRIMARIA MULTIGRADO, PREESCOLAR COMUNITARIO MULTINIVEL",Boaco,Camoapa,11,101
PERPETUO SOCORRO,12.44488000,-85.23760000,FINCA DE JULION OJEDA LÓPEZ.,"PRIMARIA MULTIGRADO, PREESCOLAR COMUNITARIO MULTINIVEL",Boaco,Camoapa,11,101
SOR MARÍA ROMERO MENESES,12.59901000,-85.13745000,FINCA LOS MORA DE FAUSTINO SANDOVAL.,PRIMARIA MULTIGRADO,Boaco,Camoapa,11,101
ESC. PIEDRA FINA,12.51696500,-85.13608400,ESC. PIEDRA FINA CASERIO ALEMANIA.,"PRIMARIA MULTIGRADO, EBA, PREESCOLAR COMUNITARIO MULTINIVEL",Boaco,Camoapa,11,101
ESCUELA SANTA TERESA,12.46953000,-85.07821000,TAWA.,"PRIMARIA MULTIGRADO, PREESCOLAR COMUNITARIO MULTINIVEL",Boaco,Camoapa,11,101
INSTITUTO DIVINA PROVIDENCIA,12.60860000,-85.20330000,CONTIGUO A LA IGLESIA ANTIGUA.,SECUNDARIA POR ENCUENTRO,Boaco,Camoapa,11,101
ESC SANTA RITA DEL SABALAR,12.44863000,-85.16675000,CONTIGUO A FINCA DE MOISES SANDIGO.,"EBA, PREESCOLAR COMUNITARIO MULTINIVEL, PRIMARIA MULTIGRADO",Boaco,Camoapa,11,101
CENTRO ESCOLAR VIRGEN DE FATIMA,12.39152900,-85.56510700,CONTIGUO A LA FINCA DE FELICIANO SANCHEZ.,"PRIMARIA MULTIGRADO, PREESCOLAR COMUNITARIO MULTINIVEL",Boaco,Camoapa,11,101
CENTRO ESCOLAR SAN RAFAEL Nº2,12.44479000,-85.50694000,DE LA PRESA LA AGUADORA 2KM AL ESTE.,"PRIMARIA MULTIGRADO, PREESCOLAR COMUNITARIO MULTINIVEL",Boaco,Camoapa,11,101
CENTRO ESCOLAR AGUSTO CESAR SANDINO,12.42030000,-85.38543000,DEL ACOPIO 500 MTS AL SUR.,"PRIMARIA MULTIGRADO, PREESCOLAR COMUNITARIO MULTINIVEL",Boaco,Camoapa,11,101
CENTRO ESCOLAR CONTINGENTE XXX1 ANIVERSARIO,12.37812000,-85.57240000,SECTOR EL MONAL.,"PREESCOLAR COMUNITARIO MULTINIVEL, EBA, PRIMARIA MULTIGRADO",Boaco,Camoapa,11,101
CENTRO ESCOLAR RUBEN DARIO (ARENITA Nº1),12.47817800,-85.23916400,FINCA ARENITA.,"PRIMARIA MULTIGRADO, PREESCOLAR COMUNITARIO MULTINIVEL, EBA",Boaco,Camoapa,11,101
CENTRO ESCOLAR RAMON ESPINOZA,12.70637300,-85.13254000,FINCA SANTA RITA DE EPIFANIO LINARTE.,"PREESCOLAR COMUNITARIO MULTINIVEL, PRIMARIA MULTIGRADO, Primaria Comunitaria JYA",Boaco,Camoapa,11,101
CENTRO ESCOLAR ESCUELA UNION Nº2 (MASIGUE),12.52020500,-85.37175400,COMARCA MASIGUE.,"PRIMARIA MULTIGRADO, PREESCOLAR COMUNITARIO MULTINIVEL",Boaco,Camoapa,11,101
CENTRO ESCOLAR JOSE MARTI N°1(EL ZAHINO),12.55150200,-85.13776500,FINCA SAN SIMON.,"PREESCOLAR COMUNITARIO MULTINIVEL, PRIMARIA MULTIGRADO",Boaco,Camoapa,11,101
CENTRO ESCOLAR CRISTOBAL AVILEZ,12.61733800,-85.07969900,A.FINCA TOMAS PEREZ.,"EBA, IV CICLO, PRIMARIA MULTIGRADO, PREESCOLAR COMUNITARIO MULTINIVEL, III CICLO",Boaco,Camoapa,11,101
CENTRO INFANTIL DIVINO NIÑO,12.38706900,-85.51706000,HOSPITAL SAN FCO. DE ASIS 1 1/2C.AL SUR.,PRIMARIA REGULAR,Boaco,Camoapa,11,101
CAMOAPA FAITH ACADEMY,12.38715100,-85.51696500,"KM.112 CARRETERA A MANAGUA,CAMOAPA BOACO.","PREESCOLAR FORMAL, PRIMARIA REGULAR",Boaco,Camoapa,11,101
CENTRO ESCOLAR TOMAS BORGE MARTINEZ,12.38202000,-85.50343500,SECTOR LAS NUBES.,"PREESCOLAR COMUNITARIO MULTINIVEL, PRIMARIA MULTIGRADO",Boaco,Camoapa,11,101
EXTENSION CAMOAPA ESCUELA NORMAL CASA INMACULADA CONCEPCION,12.38642200,-85.51801900,DE DISTRIBUIDORA CROVETTO 1 C. AL NORTE.,CURSOS PROFES. MEP EN SERVICIO SABATINO,Boaco,Camoapa,11,101
CENTRO ESCOLAR SAN ANTONIO,12.32940000,-85.43088200,DE COMALAPA 15KM AL NOR-ESTE.,"ALFABETIZACION, PREESCOLAR COMUNITARIO MULTINIVEL, EBA, PRIMARIA MULTIGRADO",Boaco,Camoapa,11,101
CENTRO ESCOLAR EL ROBLAR,12.34166700,-85.51390900,COMUNIDAD EL ROBLAR CARRETERA COMALAPA - COAPA.,"PREESCOLAR COMUNITARIO MULTINIVEL, PRIMARIA MULTIGRADO, ALFABETIZACION",Boaco,Camoapa,11,101
CENTRO ESCOLAR SAN JERONIMO,12.33060900,-85.45890600,DE COMALAPA 8KM AL NORTE.,"EBA, PRIMARIA MULTIGRADO",Boaco,Camoapa,11,101
CENTRO ESCOLAR AUGUSTO C. SANDINO,12.33516500,-85.46145300,DE COMALAPA 7KM AL ESTE 200 MTS AL NORTE.,"Primaria Comunitaria JYA, PREESCOLAR COMUNITARIO MULTINIVEL, PRIMARIA MULTIGRADO",Boaco,Camoapa,11,101
JOSE DOLORES ESTRADA,12.39571700,-85.24824400,COMARCA ARENA ABAJO A 20 KM DE LA LIBERTAD.,"PRIMARIA MULTIGRADO, Primaria Comunitaria JYA, PREESCOLAR COMUNITARIO MULTINIVEL",Boaco,Camoapa,11,101
CENTRO ESCOLAR SANTA MARIA,12.50527800,-85.03700400,70 KM AL NORESTE DE LA LIBERTAD.,"PRIMARIA MULTIGRADO, PREESCOLAR COMUNITARIO MULTINIVEL",Boaco,Camoapa,11,101
CENTRO ESCOLAR BENICIO BAEZ,12.54814500,-85.02681500,TAWA 95 KM DE LA LIBERTAD.,"PREESCOLAR COMUNITARIO MULTINIVEL, PRIMARIA MULTIGRADO",Boaco,Camoapa,11,101
CENTRO ESCOLAR SAN ISIDRO,12.77146000,-85.11564000,BOCANA DE PAIWAS 4 KM AL SUR.,"PRIMARIA MULTIGRADO, PREESCOLAR COMUNITARIO MULTINIVEL",Boaco,Camoapa,11,101
CENTRO ESCOLAR HERMANAS ALVAREZ AGUILAR,12.59745700,-85.76307100,DEL PARQUE 1 C AL ESTE.,"PREESCOLAR FORMAL, IV CICLO, PRIMARIA REGULAR, III CICLO, PREESCOLAR COMUNITARIO",Boaco,San José de los Remates,11,97
INSTITUTO NACIONAL NAVAS ALVARADO,12.59532900,-85.75910000,CENTRO DE SALUD 200 VRS. AL SUR.,SECUNDARIA REGULAR,Boaco,San José de los Remates,11,97
EL CERRO,12.61506000,-85.77956000,COMARCA EL CERRO.,PRIMARIA MULTIGRADO,Boaco,San José de los Remates,11,97
PROF: VICTORIA ALVAREZ,12.60760000,-85.85485000,EMPALME  LA CAÑADA  KM 1 ½OESTE.,PRIMARIA MULTIGRADO,Boaco,San José de los Remates,11,97
LA CAÑADA,12.63513000,-85.81274000,EMPALME  LA CAÑA 1½ KM OESTE.,PRIMARIA MULTIGRADO,Boaco,San José de los Remates,11,97
MALACATOYA # 1,12.61197000,-85.71699600,COMARCA MALACATOYA.,PRIMARIA MULTIGRADO,Boaco,San José de los Remates,11,97
EL COROZO,12.56182000,-85.76547000,COMARCA EL COROZO.,PRIMARIA MULTIGRADO,Boaco,San José de los Remates,11,97
CUMAICA SUR,12.63797900,-85.67548400,COMARCA CUMAYCA SUR.,"PREESCOLAR COMUNITARIO MULTINIVEL, PREESCOLAR COMUNITARIO, III CICLO, IV CICLO, PRIMARIA REGULAR",Boaco,San José de los Remates,11,97
RUBEN DARIO.,12.54480000,-85.89931000,COMARCA TIERRA BLANCA.,PRIMARIA MULTIGRADO,Boaco,San José de los Remates,11,97
CENTRO ESCOLAR ALVAREZ HUETE.,12.56578000,-85.91537000,COMARCA EL COYOL.,"SECUNDARIA POR ENCUENTRO, PREESCOLAR COMUNITARIO MULTINIVEL, PRIMARIA MULTIGRADO",Boaco,San José de los Remates,11,97
CENTRO ESCOLAR LARREYNAGA(JULIO BUITRAGO),12.55965700,-85.88287000,COMARCA BAJOS DE TOMATOYA.,"PREESCOLAR COMUNITARIO MULTINIVEL, PRIMARIA MULTIGRADO",Boaco,San José de los Remates,11,97
CENTRO ESCOLAR SAN BARTOLO.,12.59788000,-85.79646000,COMARCA SAN BARTOLO.,"PRIMARIA MULTIGRADO, PREESCOLAR COMUNITARIO MULTINIVEL",Boaco,San José de los Remates,11,97
CENTRO ESCOLAR RAFAELA HERRERA,12.55937000,-85.84438000,COMARCA NACASCOLO.,"PRIMARIA MULTIGRADO, PREESCOLAR COMUNITARIO MULTINIVEL",Boaco,San José de los Remates,11,97
EL RELOJ,12.59672800,-85.68329900,COMARCA EL RELOJ.,PRIMARIA MULTIGRADO,Boaco,San José de los Remates,11,97
CUMAYKA NORTE,12.65068300,-85.69514200,COMARCA CUMAYCA NORTE.,"PREESCOLAR COMUNITARIO MULTINIVEL, PRIMARIA MULTIGRADO",Boaco,San José de los Remates,11,97
MALACATOYA # 2,12.59825900,-85.71417600,COMARCA MALACATOYA.,"PRIMARIA MULTIGRADO, PREESCOLAR COMUNITARIO MULTINIVEL",Boaco,San José de los Remates,11,97
CERRO ALEGRE (GERMAN POMAREZ),12.62662200,-85.71676000,COMARCA CERRO ALEGRE.,PRIMARIA MULTIGRADO,Boaco,San José de los Remates,11,97
CENTRO ESCOLAR EL SOCORRO.,12.63458500,-85.72066700,COMARCA EL ROBLAR.,"PRIMARIA MULTIGRADO, PREESCOLAR COMUNITARIO MULTINIVEL",Boaco,San José de los Remates,11,97
CENTRO ESCOLAR ANDÉS CASTRO,12.57425200,-85.74420800,COMARCA LOS TALNITES.,"PRIMARIA MULTIGRADO, PREESCOLAR COMUNITARIO MULTINIVEL",Boaco,San José de los Remates,11,97
LA AURORA,12.64662400,-85.64502400,LA AURORA (CUMAICA SUR).,"PRIMARIA MULTIGRADO, PREESCOLAR COMUNITARIO MULTINIVEL",Boaco,San José de los Remates,11,97
LA VIRGEN,12.61746600,-85.69825000,MALACATOYA.,PRIMARIA MULTIGRADO,Boaco,San José de los Remates,11,97
ENMANUEL MONGALO,12.60643000,-85.83446000,CASAS NUEVAS.,PRIMARIA MULTIGRADO,Boaco,San José de los Remates,11,97
INSTITUTO CUMAICA SUR,12.63856000,-85.67610000,DE LA ESTACION DE POLICIA 50 MTS AL ESTE.,SECUNDARIA REGULAR,Boaco,San José de los Remates,11,97
WALTER GEORGE MOLLER,12.63870000,-85.78080000,CERRO SANTA MARIA 5 KM AL SUR DE ESQUIPULA.,"PREESCOLAR COMUNITARIO MULTINIVEL, PRIMARIA MULTIGRADO",Boaco,San José de los Remates,11,97
TIERRA BLANCA,12.27205600,-85.80232700,DEL TIMA 24 KM AL ESTE 17 KM AL NORTE.,PRIMARIA MULTIGRADO,Boaco,San Lorenzo,11,102
MANUEL DE JESUS RIVERA,12.28864000,-85.77512000,35KMS AL SUR DE TEUSTEPE.,PRIMARIA MULTIGRADO,Boaco,San Lorenzo,11,102
OSCAR DANILO QUEZADA,12.37014100,-85.60712200,SANTA INES.,"PREESCOLAR COMUNITARIO MULTINIVEL, PRIMARIA MULTIGRADO",Boaco,San Lorenzo,11,102
CENTRO ESCOLAR MIXTA SAN LORENZO,12.37759000,-85.66560000,BARRIO MARÍA REYNA FTE. A LA BARRERA.,"IV CICLO, PRIMARIA REGULAR, PREESCOLAR COMUNITARIO, PREESCOLAR FORMAL, Primaria Comunitaria JYA, PRIM. REGULAR EN EDUC. ESPECIAL",Boaco,San Lorenzo,11,102
CENTRO ESCOLAR SAN FRANCISCO.,12.30388000,-85.64403000,KM. 93 CARRETERA AL RAMA.,"SECUNDARIA EN EL CAMPO, EBA, PREESCOLAR FORMAL MULTINIVEL, PRIMARIA REGULAR",Boaco,San Lorenzo,11,102
CENTRO ESCOLAR DANELIA PÁRAMO,12.34415000,-85.65732000,KM. 88 CARRETERA AL RAMA.,"PRIMARIA MULTIGRADO, PREESCOLAR COMUNITARIO MULTINIVEL",Boaco,San Lorenzo,11,102
CENTRO ESCOLAR CARMEN GÒMEZ FLORES.,12.37274000,-85.70046000,KM. 82  CARRETERA AL RAMA.,"PREESCOLAR COMUNITARIO MULTINIVEL, Primaria Comunitaria JYA, PRIMARIA REGULAR, PRIMARIA MULTIGRADO",Boaco,San Lorenzo,11,102
CENTRO ESCOLAR VILMA SANDOVAL.,12.30639000,-85.71337000,COMUNIDAD EL CARIBE.,PRIMARIA MULTIGRADO,Boaco,San Lorenzo,11,102
ESCUELA LAS LAJAS,12.31543000,-85.72810000,COMUNIDAD LAS LAJAS.,"EBA, SECUNDARIA EN EL CAMPO, PRIMARIA MULTIGRADO",Boaco,San Lorenzo,11,102
ESCUELA SAN ONOFRE,12.35258000,-85.69013000,84 KM. CARRETERA AL RAMA 3 KM. AL OESTE.,"EBA, SECUNDARIA EN EL CAMPO, PREESCOLAR FORMAL MULTINIVEL, PRIMARIA REGULAR, PRIMARIA MULTIGRADO",Boaco,San Lorenzo,11,102
CENTRO ESCOLAR MIGUEL LARREYNAGA.,12.28579000,-85.65164000,84 KM. CARRETERA AL RAMA 3 KM. AL OESTE.,"PRIMARIA REGULAR, PREESCOLAR FORMAL MULTINIVEL, PRIMARIA MULTIGRADO, IV CICLO, III CICLO, EBA",Boaco,San Lorenzo,11,102
CENTRO ESCOLAR DAMASO CAMPOS SÁNCHEZ.,12.38909400,-85.64439700,SAN LORENZO 7 KM. AL ESTE.,"PRIMARIA MULTIGRADO, PREESCOLAR COMUNITARIO MULTINIVEL, III CICLO, EBA",Boaco,San Lorenzo,11,102
CENTRO ESCOLAR FLOR DE SACUANJOCHE.,12.38077900,-85.63694600,C/S SAN LORENZO 4 KM. AL ESTE.,"PRIMARIA MULTIGRADO, Primaria Comunitaria JYA, III CICLO, EBA, SECUNDARIA EN EL CAMPO, PREESCOLAR COMUNITARIO MULTINIVEL",Boaco,San Lorenzo,11,102
CENTRO ESCOLAR MADRE TERESA DE CALCUTA.,12.36065000,-85.68712000,KM. 84 CARRETERA AL RAMA.,"PREESCOLAR COMUNITARIO MULTINIVEL, PRIMARIA MULTIGRADO",Boaco,San Lorenzo,11,102
ESCUELA LAS UVAS,12.29056000,-85.72308000,COMUNIDAD LAS UVAS.,"PRIMARIA MULTIGRADO, PREESCOLAR COMUNITARIO MULTINIVEL, EBA",Boaco,San Lorenzo,11,102
CENTRO ESCOLAR SANTA FÉ,12.32155000,-85.69081000,MONTE FRESCO.,"IV CICLO, PREESCOLAR COMUNITARIO MULTINIVEL, PRIMARIA MULTIGRADO",Boaco,San Lorenzo,11,102
ESCUELA LAS PILAS NO. 1,12.33406000,-85.68257000,LAS PILAS.,"PREESCOLAR FORMAL MULTINIVEL, PRIMARIA MULTIGRADO",Boaco,San Lorenzo,11,102
CENTRO ESCOLAR LA ASUNCIÒN,12.33357600,-85.66924000,EL CARBONAL.,"PRIMARIA MULTIGRADO, PREESCOLAR FORMAL MULTINIVEL, III CICLO, SECUNDARIA EN EL CAMPO",Boaco,San Lorenzo,11,102
ESCUELA LOS ROBLES,12.31963000,-85.63208000,LOS ROBLES.,"PREESCOLAR COMUNITARIO MULTINIVEL, PRIMARIA MULTIGRADO",Boaco,San Lorenzo,11,102
CENTRO ESCOLAR SANTA RITA.,12.35021000,-85.63163000,QUIZALTEPE.,"PRIMARIA MULTIGRADO, PREESCOLAR COMUNITARIO MULTINIVEL",Boaco,San Lorenzo,11,102
CENTRO ESCOLAR CORAZÒN DE JESUS,12.33939000,-85.65034000,KM. 88½ CARRETERA AL RAMA.,"PRIMARIA REGULAR, IV CICLO, III CICLO, PREESCOLAR COMUNITARIO, PREESCOLAR FORMAL MULTINIVEL",Boaco,San Lorenzo,11,102
CENTRO ESCOLAR RAFAELA HERRERA,12.32335000,-85.64582000,KM. 91 CARRETERA AL RAMA.,"PREESCOLAR COMUNITARIO MULTINIVEL, PRIMARIA MULTIGRADO",Boaco,San Lorenzo,11,102
CENTRO ESCOLAR EL MADROÑO,12.31691200,-85.66084200,LAGUNA SAN FCO..,"PRIMARIA MULTIGRADO, PREESCOLAR COMUNITARIO MULTINIVEL, III CICLO, EBA",Boaco,San Lorenzo,11,102
CENTRO ESCOLAR EL GUARDABARRANCO.,12.31113900,-85.66409100,COMARCA EL AGUACATE.,"PREESCOLAR COMUNITARIO MULTINIVEL, EBA, PRIMARIA MULTIGRADO",Boaco,San Lorenzo,11,102
CENTRO ESCOLAR ANDRES CASTRO.,12.29613400,-85.67661500,COMARCA LOS ENCUENTROS.,"III CICLO, EBA, Primaria Comunitaria JYA, PREESCOLAR COMUNITARIO MULTINIVEL, PRIMARIA MULTIGRADO",Boaco,San Lorenzo,11,102
CENTRO ESCOLAR AMIGOS DE LA PAZ.,12.27026000,-85.69807000,COMARCA EL TIGRE.,"PREESCOLAR COMUNITARIO MULTINIVEL, PRIMARIA MULTIGRADO",Boaco,San Lorenzo,11,102
CENTRO ESCOLAR RUBEN DARIO,12.24411200,-85.65362600,COMUNIDAD SAN ANTONIO.,"PRIMARIA MULTIGRADO, PREESCOLAR FORMAL MULTINIVEL",Boaco,San Lorenzo,11,102
CENTRO ESCOLAR SAN JUAN DE PABLO,12.23188000,-85.76816000,COMARCA SAN JUAN DE PABLO.,"SECUNDARIA EN EL CAMPO, PREESCOLAR COMUNITARIO MULTINIVEL, PRIMARIA MULTIGRADO, Primaria Comunitaria JYA",Boaco,San Lorenzo,11,102
CENTRO ESCOLAR JOSÉ DOLORES ESTRADA.,12.25421000,-85.71563000,EL CHAGUITE.,"IV CICLO, PRIMARIA MULTIGRADO, PREESCOLAR COMUNITARIO MULTINIVEL, III CICLO, EBA, Primaria Comunitaria JYA",Boaco,San Lorenzo,11,102
CENTRO ESCOLAR SALOMÒN DE LA SELVA.,12.23925000,-85.71306000,EL INCENDIO.,"PREESCOLAR COMUNITARIO MULTINIVEL, PRIMARIA MULTIGRADO",Boaco,San Lorenzo,11,102
CENTRO ESCOLAR FRANCISCO MORAZAN.,12.27635000,-85.63680000,KM. 95  4 KM. AL ESTE.,"PRIMARIA MULTIGRADO, Primaria Comunitaria JYA, PREESCOLAR COMUNITARIO MULTINIVEL",Boaco,San Lorenzo,11,102
MILCEADES DELGADILLO TOBAL.,12.15023000,-85.70211000,LAS PILAS # 2.,PRIMARIA MULTIGRADO,Boaco,San Lorenzo,11,102
CENTRO ESCOLAR CAMILO ZAPATA.,12.18859300,-85.69673700,KM. 102 CARRETARA RAMA- MANAGUA 10 KM. A MALACATOYA.,"EBA, PREESCOLAR COMUNITARIO MULTINIVEL, PRIMARIA MULTIGRADO",Boaco,San Lorenzo,11,102
CENTRO ESCOLAR PEDRO ALBINO LARGAESPADA.,12.17655000,-85.74194700,PAPAYAL 13 ½ KM CARRETERA A MALACATOYA.,"EBA, PRIMARIA MULTIGRADO, Primaria Comunitaria JYA, III CICLO, PREESCOLAR COMUNITARIO",Boaco,San Lorenzo,11,102
CENTRO ESCOLAR CONCEPCIÒN DE MARIA.,12.21183200,-85.72909900,EL POCHOTAL.,"PRIMARIA MULTIGRADO, PREESCOLAR COMUNITARIO MULTINIVEL",Boaco,San Lorenzo,11,102
CENTRO ESCOLAR SANTA MARGARITA.,12.09828000,-85.72085000,EL MENEADERO.,PRIMARIA MULTIGRADO,Boaco,San Lorenzo,11,102
CENTRO ESCOLAR SOLON GUERRERO.,12.11991000,-85.68495000,MIRAMONTE.,"PRIMARIA REGULAR, PREESCOLAR FORMAL MULTINIVEL, SECUNDARIA EN EL CAMPO",Boaco,San Lorenzo,11,102
CENTRO ESCOLAR SANTA RITA DE CASSIA,12.20787000,-85.66955000,LA PEÑITA.,"PREESCOLAR FORMAL MULTINIVEL, SECUNDARIA REGULAR, PRIMARIA REGULAR, EBA, PREESCOLAR COMUNITARIO MULTINIVEL",Boaco,San Lorenzo,11,102
CENTRO ESCOLAR NICARAO.,12.19559600,-85.67390000,EL PALO.,"PREESCOLAR COMUNITARIO MULTINIVEL, EBA, PRIMARIA MULTIGRADO",Boaco,San Lorenzo,11,102
CENTRO ESCOLAR CRISTO REY.,12.17014000,-85.67392000,BELEN.,"PREESCOLAR COMUNITARIO MULTINIVEL, PRIMARIA MULTIGRADO, IV CICLO, III CICLO",Boaco,San Lorenzo,11,102
CENTRO ESCOLAR MARIA AUXILIADORA.,12.23235000,-85.65182000,EL RECREO.,"PREESCOLAR FORMAL MULTINIVEL, PRIMARIA MULTIGRADO",Boaco,San Lorenzo,11,102
CENTRO ESCOLAR FERNANDO CARBONELL,12.35998000,-85.65214000,COMARCA EL CARRIZAL.,"III CICLO, Primaria Comunitaria JYA, EBA, PREESCOLAR COMUNITARIO MULTINIVEL, PRIMARIA MULTIGRADO",Boaco,San Lorenzo,11,102
INSTITUTO NACIONAL DONALD ARGUELLO BLANCO,12.25122300,-85.64445500,KM. 100  CARRETERA AL RAMA.,"SECUNDARIA POR ENCUENTRO, SECUNDARIA REGULAR",Boaco,San Lorenzo,11,102
CENTRO ESCOLAR ENMANUEL MONGALO.,12.28212000,-85.67144000,KM. 100  CARRETERA AL RAMA.,"IV CICLO, III CICLO, EBA, PREESCOLAR COMUNITARIO MULTINIVEL, PRIMARIA MULTIGRADO",Boaco,San Lorenzo,11,102
CENTRO ESCOLAR MIXTA TECOLOSTOTE,12.25374000,-85.64245000,FTE. A LA IGLESIA CATOLICA.,"PREESCOLAR FORMAL MULTINIVEL, Primaria Comunitaria JYA, PRIMARIA REGULAR, PRIM. REGULAR EN EDUC. ESPECIAL, PREESCOLAR COMUNITARIO, PREESCOLAR FORMAL, PREES. FORMAL EN EDUC. ESPECIAL",Boaco,San Lorenzo,11,102
INSTITUTO NAC. ELBA VALDIVIA DE CORTÉZ.,12.36136000,-85.66939000,KM 88 CARRETERA AL RAMA.,"SECUNDARIA REGULAR, SECUNDARIA POR ENCUENTRO",Boaco,San Lorenzo,11,102
SAN DIEGO (CACAO),12.32916000,-85.70108000,EL CACAO.,"EBA, PRIMARIA MULTIGRADO, PREESCOLAR COMUNITARIO MULTINIVEL, III CICLO",Boaco,San Lorenzo,11,102
FCO. MODESTO OPORTA PÉREZ.,12.10755000,-85.70819000,LA PALMA.,"EBA, PREESCOLAR COMUNITARIO MULTINIVEL, PRIMARIA MULTIGRADO",Boaco,San Lorenzo,11,102
CENTRO ESCOLAR RIGOBERTO MAYORGA PALMA.,12.20691000,-85.78543000,COMARCA LA TRINIDAD.,PRIMARIA MULTIGRADO,Boaco,San Lorenzo,11,102
ESCUELA LAS CASITAS,12.33860000,-85.71267200,COMARCA LA TRINIDAD.,"PRIMARIA MULTIGRADO, PREESCOLAR COMUNITARIO MULTINIVEL",Boaco,San Lorenzo,11,102
COLEGIO INMACULADA CONCEPCION DE MARIA,12.24630000,-85.65130000,CONTIGUO A LA IGLESIA PARROQUIAL.,"PREESCOLAR FORMAL MULTINIVEL, SECUNDARIA REGULAR, PRIMARIA REGULAR",Boaco,San Lorenzo,11,102
CENTRO ESCOLAR TOMASITA FLORES ORTEGA,12.40784000,-85.66539000,COMARCA EL PLATANAL.,"PRIMARIA MULTIGRADO, PREESCOLAR COMUNITARIO MULTINIVEL, III CICLO",Boaco,San Lorenzo,11,102
CENTRO ESCOLAR EL RINCÓN,12.25133000,-85.79796000,EL RINCÓN.,"PRIMARIA MULTIGRADO, III CICLO, EBA",Boaco,San Lorenzo,11,102
CENTRO ESCOLAR EL JABILLO,12.28900000,-85.69709000,EL JABILLO.,"PREESCOLAR COMUNITARIO MULTINIVEL, PRIMARIA MULTIGRADO",Boaco,San Lorenzo,11,102
CENTRO ESCOLAR EL JOBO,12.16841000,-85.66879000,COMUNIDAD EL JOBO.,"PRIMARIA MULTIGRADO, PREESCOLAR COMUNITARIO MULTINIVEL",Boaco,San Lorenzo,11,102
EL POTRERO,12.25036000,-85.74911000,POTRERO.,"PRIMARIA MULTIGRADO, PREESCOLAR COMUNITARIO MULTINIVEL",Boaco,San Lorenzo,11,102
LA PENA (LOS COCOS),12.10919000,-85.76261000,DEL HOSPITAL EL PAPAYAL 10 KMS A LA ARROCERA.,"PRIMARIA MULTIGRADO, PREESCOLAR COMUNITARIO MULTINIVEL",Boaco,San Lorenzo,11,102
ALFONSO CORTEZ,12.24961300,-85.64817000,EL BARILLAL.,"PREESCOLAR COMUNITARIO MULTINIVEL, PRIMARIA MULTIGRADO",Boaco,San Lorenzo,11,102
EL CASCAJAL,12.17309800,-85.76484000,COMARCA EL CASCAJAL.,"PREESCOLAR COMUNITARIO MULTINIVEL, PRIMARIA MULTIGRADO",Boaco,San Lorenzo,11,102
SAN NICOLÁS,12.21494000,-85.70125000,SAN NICOLAS.,PRIMARIA MULTIGRADO,Boaco,San Lorenzo,11,102
CENTRO ESCOLAR PUBLICO MARIA ANTONIETA ALMANZA,12.38913000,-85.68006000,DE LA DELEGACION MUNICIPAL SAN LORENZO 3 KM AL ESTE.,"PRIMARIA MULTIGRADO, PREESCOLAR COMUNITARIO MULTINIVEL",Boaco,San Lorenzo,11,102
CENTRO ESCOLAR MARIA ISABEL URBINA,12.38694000,-85.70444000,KM 80 CARRETERA AL RAMA.,PRIMARIA MULTIGRADO,Boaco,San Lorenzo,11,102
EDELBERTO TORREZ ESPINOZA,12.26807000,-85.65458000,LA PITA.,"Primaria Comunitaria JYA, PRIMARIA MULTIGRADO",Boaco,San Lorenzo,11,102
AUGUSTO CESAR SANDINO,12.25708000,-85.72594000,EL BAJO.,PRIMARIA MULTIGRADO,Boaco,San Lorenzo,11,102
LA PINTADA,12.36523700,-85.71006100,LA PINTADA.,PRIMARIA MULTIGRADO,Boaco,San Lorenzo,11,102
BUENOS AIRES,12.33114000,-85.65285000,BUENOS AIRES.,"Primaria Comunitaria JYA, PRIMARIA MULTIGRADO, PREESCOLAR COMUNITARIO",Boaco,San Lorenzo,11,102
CENTRO ESCOLAR SAN JOSE,12.38404000,-85.66102400,DEL C/S  1KM AL NORESTE.,"PRIMARIA MULTIGRADO, EBA",Boaco,San Lorenzo,11,102
CENTRO ESCOLAR CATARINA,12.18484000,-85.79648000,CATARINA.,"PREESCOLAR COMUNITARIO MULTINIVEL, PRIMARIA MULTIGRADO",Boaco,San Lorenzo,11,102
CENTRO ESCOLAR DIVINA MISERICORDIA,12.23292000,-85.64363000,KM 103 CARRETERA AL RAMA.,"PREESCOLAR COMUNITARIO MULTINIVEL, PRIMARIA MULTIGRADO",Boaco,San Lorenzo,11,102
CENTRO ESCOLAR EL CARRIZAL,12.11183000,-85.71847000,EL CARRIZAL.,PRIMARIA MULTIGRADO,Boaco,San Lorenzo,11,102
CENTRO ESCOLAR AGUACATE LOS ORTICES,12.31336000,-85.71466000,DE LA ESC. DE LAS LAJAS 3 KM AL ESTE.,PRIMARIA MULTIGRADO,Boaco,San Lorenzo,11,102
CENTRO ESCOLAR BOCA EL CONGO,12.18883300,-85.72242300,FRENTE A LA ENTRADA DE LA COMUNIDAD EL POCHOTAL.,"PREESCOLAR COMUNITARIO MULTINIVEL, PRIMARIA MULTIGRADO",Boaco,San Lorenzo,11,102
CENTRO ESCOLAR LOS GARCIAS,12.30850600,-85.72481000,DE LA IGLESIA NAZARETH 100 MTS AL NORTE.,PRIMARIA MULTIGRADO,Boaco,San Lorenzo,11,102
CENTRO ESCOLAR FRANCISCA GARCIA.,12.53106500,-85.71205100,DE LA ALCALDIA 2 C. AL OESTE.,"PREESCOLAR FORMAL, PRIMARIA REGULAR",Boaco,Santa Lucía,11,99
MARIA ADILIA MARTINEZ,12.45157900,-85.75073100,COMARCA BOAQUITO.,"PREESCOLAR FORMAL MULTINIVEL, PRIMARIA MULTIGRADO, SECUNDARIA EN EL CAMPO",Boaco,Santa Lucía,11,99
CENTRO ESCOLAR JOSÉ DOLORES ESTRADA.,12.50828100,-85.72372400,EL RIEGO.,"PRIMARIA MULTIGRADO, PREESCOLAR FORMAL MULTINIVEL",Boaco,Santa Lucía,11,99
LAS MERCEDES (CENTRO ESCOLAR DENIS MARTINEZ ),12.56528000,-85.66510000,COOP. BUENOS AIRES 30 KMS. AL OESTE.,"PRIMARIA REGULAR, PRIMARIA MULTIGRADO, SECUNDARIA EN EL CAMPO, PREESCOLAR COMUNITARIO MULTINIVEL",Boaco,Santa Lucía,11,99
CENTRO ESCOLAR HAYDEE BRAVO.,12.54152000,-85.70198000,COMARCA LOS RIVAS.,"PRIMARIA MULTIGRADO, PREESCOLAR COMUNITARIO MULTINIVEL, III CICLO",Boaco,Santa Lucía,11,99
CENTRO ESCOLAR CLAUDIA MARIA ALVAREZ,12.53171700,-85.70815800,COMARCA LOS ALVARES.,"PREESCOLAR FORMAL MULTINIVEL, PRIMARIA MULTIGRADO, III CICLO",Boaco,Santa Lucía,11,99
GABRIELA MISTRAL (VIJAGUAL NO. 1),12.56764000,-85.72019000,COMARCA EL VIJAGUAL.,"PRIMARIA MULTIGRADO, PREESCOLAR COMUNITARIO MULTINIVEL",Boaco,Santa Lucía,11,99
CENTRO ESCOLAR RUBÉN DARIO.,12.53543300,-85.71665000,INST. BEATRIZ ROCHA 500 MTS. AL NORTE.,"PREESCOLAR FORMAL MULTINIVEL, PRIMARIA REGULAR",Boaco,Santa Lucía,11,99
BLANCA GARCÎA,12.52200300,-85.76066600,COMARCA LA CONCEPCION.,"PREESCOLAR FORMAL MULTINIVEL, PRIMARIA MULTIGRADO, III CICLO",Boaco,Santa Lucía,11,99
CENTRO ESCOLAR FIDEL ALEJANDRO CASTRO RUZ,12.48641300,-85.75689000,COMARCA STO. DOMINGO.,"PREESCOLAR COMUNITARIO MULTINIVEL, PRIMARIA MULTIGRADO",Boaco,Santa Lucía,11,99
INSTITUTO BEATRIZ ROCHA,12.53305800,-85.71463100,DEL TANQUE INAA 150 VRS. AL OESTE.,SECUNDARIA REGULAR,Boaco,Santa Lucía,11,99
CENTRO ESCOLAR ARLEN SIU BERMUDEZ,12.52544900,-85.71724300,CEMENTERIO 1 ½ C. ABAJO.,"III CICLO, IV CICLO, PRIMARIA REGULAR, PRIMARIA MULTIGRADO, PREESCOLAR FORMAL MULTINIVEL",Boaco,Santa Lucía,11,99
JORGE URCUYO ARGUELLO,12.52609000,-85.70119000,COMARCA LOS GARCIAS.,"PREESCOLAR FORMAL, III CICLO, PRIMARIA REGULAR",Boaco,Santa Lucía,11,99
CENTRO ESCOLAR SALOMON DE LA SELVA.,12.49176000,-85.69325000,COMARCA EL OREGANO.,"III CICLO, PREESCOLAR COMUNITARIO MULTINIVEL, PRIMARIA MULTIGRADO",Boaco,Santa Lucía,11,99
CENTRO EDUCATIVO DOMINGO SAVIO,12.53360000,-85.71200000,C/SALUD 1 C. NORTE 1 C. ESTE.,"PREESCOLAR FORMAL MULTINIVEL, SECUNDARIA REGULAR, PRIMARIA REGULAR",Boaco,Santa Lucía,11,99
CENTRO ESCOLAR DR.PEDRO JOAQUIN CHAMORRO.,12.50768000,-85.67952000,COMARCA LOS MARTINEZ.,"PREESCOLAR COMUNITARIO MULTINIVEL, PRIMARIA MULTIGRADO",Boaco,Santa Lucía,11,99
CENTRO ESCOLAR SALOMÖN IBARRA MAYORGA.,12.54577000,-85.68733000,CHISCOLAPA # 2.,"PRIMARIA MULTIGRADO, PREESCOLAR COMUNITARIO MULTINIVEL",Boaco,Santa Lucía,11,99
CENTRO ESCOLAR ENMANUEL MONGALO.,12.54385000,-85.73007000,COMARCA EL ABRA.,"PRIMARIA MULTIGRADO, PREESCOLAR COMUNITARIO MULTINIVEL",Boaco,Santa Lucía,11,99
GUILLERMINA SALINAS,12.52520800,-85.68754400,COMARCA LOS GARCIA SANTA LUCIA.,"PREESCOLAR COMUNITARIO MULTINIVEL, PRIMARIA MULTIGRADO",Boaco,Santa Lucía,11,99
CENTRO ESCOLAR ANDRES CASTRO ESTRADA,12.49831400,-85.74100600,LOS RASTROJOS.,"PREESCOLAR COMUNITARIO MULTINIVEL, PRIMARIA MULTIGRADO",Boaco,Santa Lucía,11,99
BLANCA NAVARRETE,12.56418200,-85.73194800,COMARCA EL PLAN.,"PREESCOLAR COMUNITARIO MULTINIVEL, PRIMARIA MULTIGRADO",Boaco,Santa Lucía,11,99
CENTRO ESCOLAR ROSA ELENA MONTOYA,12.56023000,-85.69433000,COMARCA EL CEBOLLIN.,"PRIMARIA MULTIGRADO, PREESCOLAR COMUNITARIO MULTINIVEL",Boaco,Santa Lucía,11,99
RAFAELA HERRERA #2,12.53460000,-85.69757000,SANTA LUCIA.,"PRIMARIA MULTIGRADO, PREESCOLAR COMUNITARIO MULTINIVEL",Boaco,Santa Lucía,11,99
ERNESTO JOSE ALVARADO,12.46314600,-85.75423200,LAS PENCAS.,"PRIMARIA MULTIGRADO, PREESCOLAR COMUNITARIO MULTINIVEL",Boaco,Santa Lucía,11,99
EL NANCITAL,12.33813000,-85.90020000,KM 53 CARRETERA AL RAMA.,PRIMARIA MULTIGRADO,Boaco,Teustepe,11,98
JOSE DOLORES ESTRADA,12.54468700,-85.80801900,LOS HORCONSITOS.,"PREESCOLAR COMUNITARIO, PRIMARIA MULTIGRADO",Boaco,Teustepe,11,98
CRISTOBAL COLON,12.55425400,-85.78310000,POZA DE LA PIEDRA.,"PREESCOLAR COMUNITARIO MULTINIVEL, PRIMARIA MULTIGRADO",Boaco,Teustepe,11,98
CENTRO ESCOLAR LILA INCER.,12.41755000,-85.79830000,IGLESIA CATOLICA 2 ½ C. AL SUR.,"PRIMARIA REGULAR, PRIM. REGULAR EN EDUC. ESPECIAL, PREESCOLAR COMUNITARIO MULTINIVEL, PREESCOLAR FORMAL",Boaco,Teustepe,11,98
INSTITUTO AMISTAD,12.42324600,-85.80404100,ESTADIO 150 VRS. AL OESTE.,"SECUNDARIA REGULAR, SECUNDARIA POR ENCUENTRO, IV CICLO, III CICLO",Boaco,Teustepe,11,98
CENTRO ESCOLAR DIRIANGEN.,12.35089300,-85.88631200,TEUSTEPE 15 KM. AL CARACOL.,"PRIMARIA MULTIGRADO, PREESCOLAR COMUNITARIO MULTINIVEL",Boaco,Teustepe,11,98
ESCUELA SANTA RITA,12.40410000,-85.72818000,8 KM. A SANTA RITA.,"PRIMARIA MULTIGRADO, PREESCOLAR COMUNITARIO MULTINIVEL",Boaco,Teustepe,11,98
CENTRO ESCOLAR HERMANDAD FINLANDIA,12.40754000,-85.79719000,TEUSTEPE 3 KM..,"PRIMARIA MULTIGRADO, PREESCOLAR COMUNITARIO MULTINIVEL",Boaco,Teustepe,11,98
CENTRO ESCOLAR LUCRECIA OLIVA RODRIGUEZ.,12.41766000,-85.83191000,TEUSTEPE 6 KM. A LA CRUZ # 1.,"PREESCOLAR FORMAL MULTINIVEL, PREESCOLAR FORMAL, IV CICLO, PRIMARIA REGULAR, III CICLO, SECUNDARIA EN EL CAMPO",Boaco,Teustepe,11,98
CENTRO ESCOLAR NENA MARIA QUESADA.,12.41545000,-85.75023000,FTE. A LA IGLESIA CATOLICA.,"PREESCOLAR COMUNITARIO, III CICLO, PRIMARIA A DISTANCIA EN EL CAMPO, PREESCOLAR FORMAL MULTINIVEL, PRIMARIA REGULAR",Boaco,Teustepe,11,98
CENTRO ESCOLAR CRUZ MARIA MONTIEL O.,12.38965000,-85.73792000,ASEDADES.,"PREESCOLAR COMUNITARIO MULTINIVEL, III CICLO, PREESCOLAR FORMAL MULTINIVEL, PRIMARIA REGULAR",Boaco,Teustepe,11,98
CENTRO ESCOLAR INFANTIL AMERICANO.,12.37878000,-85.73715000,A 8 KM. DE TEUSTEPE.,"PRIMARIA MULTIGRADO, PREESCOLAR COMUNITARIO MULTINIVEL",Boaco,Teustepe,11,98
CENTRO ESCOLAR NICARAO.,12.42770000,-85.70761000,COMARCA SONZAPOTE # 1.,"PREESCOLAR COMUNITARIO MULTINIVEL, PRIMARIA MULTIGRADO",Boaco,Teustepe,11,98
CENTRO ESCOLAR BRUNILDA SÁNCHEZ.,12.43727000,-85.74857000,COMARCA OJO DE AGUA.,"PRIMARIA MULTIGRADO, PREESCOLAR COMUNITARIO MULTINIVEL",Boaco,Teustepe,11,98
CENTRO ESCOLAR CONCEPCION ORDEÑANA ACOSTA.,12.44240000,-85.70920000,KM. 80 CARRETERA A BOACO.,"PRIMARIA MULTIGRADO, III CICLO, PREESCOLAR COMUNITARIO MULTINIVEL",Boaco,Teustepe,11,98
CENTRO ESCOLAR PEDRO JOAQUIN CHAMORRO.,12.32279000,-85.76598000,DE TEUSTEPE 25 KM.,"PRIMARIA MULTIGRADO, PREESCOLAR COMUNITARIO MULTINIVEL, SECUNDARIA EN EL CAMPO",Boaco,Teustepe,11,98
CENTRO ESCOLAR HERMANOS NORUEGOS.,12.37770000,-85.76240000,TEUSTEPE 12 KMTS. A LA CUESTA.,"PRIMARIA A DISTANCIA EN EL CAMPO, PREESCOLAR FORMAL MULTINIVEL, IV CICLO, PRIMARIA REGULAR, III CICLO",Boaco,Teustepe,11,98
CENTRO ESCOLAR MIGUEL OBANDO Y BRAVO.,12.36260000,-85.77660000,TEUSTEPE 12 KM. A CUSIRISNE.,"PRIMARIA REGULAR, PRIMARIA MULTIGRADO, PREESCOLAR COMUNITARIO MULTINIVEL, SECUNDARIA EN EL CAMPO, III CICLO",Boaco,Teustepe,11,98
CENTRO ESCOLAR ESTELA SÁNCHEZ SILVA.,12.38928500,-85.78916200,TEUSTEPE 5 KM. AGUAS CALIENTES.,"PRIMARIA MULTIGRADO, PREESCOLAR COMUNITARIO MULTINIVEL",Boaco,Teustepe,11,98
CENTRO ESCOLAR ALFONZO CORTEZ.,12.34701000,-85.74319000,TEUSTEPE 25 KMS.  A LA JOYA.,"III CICLO, PRIMARIA MULTIGRADO",Boaco,Teustepe,11,98
CENTRO ESCOLAR RAMON MONTALVAN.,12.36641000,-85.79839000,DE TEUSTEPE 10 KM CARRETERA A MANAGUA.,"PRIMARIA REGULAR, III CICLO, PREESCOLAR COMUNITARIO MULTINIVEL, PREESCOLAR FORMAL MULTINIVEL",Boaco,Teustepe,11,98
CENTRO ESCOLAR MIGUEL ESPINOZA.,12.44992000,-85.76778000,COMARCA BARRONCO ALTO.,"PRIMARIA MULTIGRADO, PREESCOLAR COMUNITARIO MULTINIVEL",Boaco,Teustepe,11,98
ESCUELA ENMA GARCÍA (COYUSNE),12.51923000,-85.77509000,TEUSTEPE 15 KMS. AL NORTE.,"PREESCOLAR COMUNITARIO MULTINIVEL, PRIMARIA MULTIGRADO",Boaco,Teustepe,11,98
CENTRO ESCOLAR ANCELMA VARELA.,12.44352000,-85.72305000,LAS TUNITAS.,"PREESCOLAR COMUNITARIO MULTINIVEL, PRIMARIA MULTIGRADO",Boaco,Teustepe,11,98
CENTRO ESCOLAR MIGUEL SÁNCHEZ.,12.49595700,-85.80622600,TEUSTEPE 10 KM. AL NORTE.,"PREESCOLAR FORMAL MULTINIVEL, IV CICLO, PRIMARIA MULTIGRADO, III CICLO",Boaco,Teustepe,11,98
FRANCISCO JOSE OBANDO,12.52440000,-85.85969000,TEUSTEPE A 18 KM..,"PREESCOLAR COMUNITARIO MULTINIVEL, PRIMARIA MULTIGRADO",Boaco,Teustepe,11,98
CENTRO ESCOLAR EL MADROÑO.,12.54975000,-85.82109100,TEUSTEPE 10 KM. AL NORTE.,"PRIMARIA MULTIGRADO, PREESCOLAR COMUNITARIO MULTINIVEL",Boaco,Teustepe,11,98
ESCUELA MIGUEL LARREYNAGA (EL ESPINO),12.53323000,-85.84324000,TEUSTEPE 10 KM. AL NORTE.,"PREESCOLAR COMUNITARIO MULTINIVEL, SECUNDARIA EN EL CAMPO, PRIMARIA MULTIGRADO",Boaco,Teustepe,11,98
CENTRO ESCOLAR JOSÉ MATIAS DELGADO.,12.50496800,-85.86069000,18 KMS. AL NORTE DE TEUSTEPE.,"PREESCOLAR COMUNITARIO MULTINIVEL, SECUNDARIA EN EL CAMPO, PRIMARIA MULTIGRADO",Boaco,Teustepe,11,98
CENTRO ESCOLAR ANDRES CASTRO.,12.51941000,-85.84528000,18 KMS. DE TEUSTEPE.,"PRIMARIA MULTIGRADO, PREESCOLAR COMUNITARIO MULTINIVEL",Boaco,Teustepe,11,98
CENTRO ESCOLAR RENE SHICK.,12.49852100,-85.88620600,25 KMS. AL NORTE DE TEUSTEPE.,"PRIMARIA MULTIGRADO, PREESCOLAR COMUNITARIO MULTINIVEL",Boaco,Teustepe,11,98
CENTRO ESCOLAR LEONEL NAVAS LOPEZ.,12.46486000,-85.85122000,DE TEUSTEPE 15 KM..,"PREESCOLAR COMUNITARIO MULTINIVEL, PRIMARIA MULTIGRADO",Boaco,Teustepe,11,98
CENTRO ESCOLAR SACUANJOCHE.,12.51729300,-85.88420300,A 25 KMS. DE TEUSTEPE.,"PRIMARIA MULTIGRADO, PREESCOLAR COMUNITARIO MULTINIVEL, SECUNDARIA EN EL CAMPO",Boaco,Teustepe,11,98
CENTRO ESCOLAR OLGA CIFUENTES.,12.42586000,-85.81554000,3 KMS. DE TEUSTEPE.,"PREESCOLAR COMUNITARIO MULTINIVEL, PRIMARIA MULTIGRADO",Boaco,Teustepe,11,98
CENTRO ESCOLAR ALFONSO ALVARADO LUGO.,12.44266200,-85.86725400,DE TEUSTEPE 10 KMS..,"IV CICLO, III CICLO, PREESCOLAR COMUNITARIO MULTINIVEL, PRIMARIA MULTIGRADO",Boaco,Teustepe,11,98
CENTRO ESCOLAR PUENTE DE AMISTAD DE NORTEAMERICA.,12.48501000,-85.91116000,25 KM. AL NORTE DE TEUSTEPE.,"PREESCOLAR COMUNITARIO MULTINIVEL, SECUNDARIA EN EL CAMPO, PRIMARIA MULTIGRADO",Boaco,Teustepe,11,98
CENTRO ESCOLAR JOSÉ DE LA CRUZ MENA.,12.45351700,-85.88747800,10 KMS. DE TEUSTEPE.,"PREESCOLAR COMUNITARIO MULTINIVEL, PRIMARIA MULTIGRADO",Boaco,Teustepe,11,98
CENTRO ESCOLAR EMERICK CASTILLO JIRON,12.52483000,-85.91520000,30 KMS. DE TEUSTEPE.,"PRIMARIA MULTIGRADO, PREESCOLAR COMUNITARIO MULTINIVEL",Boaco,Teustepe,11,98
CENTRO ESCOLAR GEOCONDA BELLI.,12.50443000,-85.92575400,DE TEUSTEPE 30 KM AL NORTE.,"PRIMARIA MULTIGRADO, III CICLO, PREESCOLAR COMUNITARIO MULTINIVEL, IV CICLO, PRIMARIA REGULAR",Boaco,Teustepe,11,98
CENTRO ESCOLAR CARLOS MEJIA GODOY.,12.42446200,-85.93815100,20 KMS. DE TEUSTEPE.,"PRIMARIA MULTIGRADO, PREESCOLAR COMUNITARIO MULTINIVEL",Boaco,Teustepe,11,98
ESCUELA PABLO ANTONIO CUADRA (CERRO DE PIEDRA),12.44992000,-85.92079900,18 KM. DE TEUSTEPE.,"PRIMARIA MULTIGRADO, PREESCOLAR COMUNITARIO MULTINIVEL",Boaco,Teustepe,11,98
CENTRO ESCOLAR JOSE CECILIO DEL VALLE.,12.49941600,-85.82145200,14 KM. DE TEUSTEPE.,"PRIMARIA MULTIGRADO, PREESCOLAR COMUNITARIO MULTINIVEL",Boaco,Teustepe,11,98
CENTRO ESCOLAR ALEXIS ARGÛELLO.,12.50780000,-85.95730000,MADERAS NEGRAS.,"PREESCOLAR COMUNITARIO, SECUNDARIA EN EL CAMPO, PRIMARIA MULTIGRADO",Boaco,Teustepe,11,98
CENTRO ESCOLAR JOSÉ DOLORES ESTRADA.,12.49457900,-85.84352100,TEUSTEPE 17 KM. AL NORTE.,"PREESCOLAR COMUNITARIO MULTINIVEL, PRIMARIA MULTIGRADO",Boaco,Teustepe,11,98
KATHIA CARDENAL,12.54484000,-85.96429000,DE TEUSTEPE 50 KILOMETROS AL PRADO.,"PRIMARIA MULTIGRADO, PREESCOLAR COMUNITARIO MULTINIVEL",Boaco,Teustepe,11,98
CENTRO ESCOLAR DENIS MARTINEZ.,12.45645800,-85.78119400,TEUSTEPE 5 KMS..,"PRIMARIA MULTIGRADO, PREESCOLAR COMUNITARIO MULTINIVEL",Boaco,Teustepe,11,98
CENTRO ESCOLAR ELENA ARELLANO.,12.50237000,-85.94285000,30 KMS. AL NORTE.,"PREESCOLAR COMUNITARIO MULTINIVEL, PRIMARIA MULTIGRADO",Boaco,Teustepe,11,98
SAN JOAQUIN,12.46514100,-85.96401100,TEUSTEPE 40 KMS..,"PRIMARIA MULTIGRADO, PREESCOLAR COMUNITARIO MULTINIVEL",Boaco,Teustepe,11,98
CENTRO ESCOLAR JOSEFA TOLEDO DE AGUIRRE.,12.48424000,-85.87230000,18 KMS DE TEUSTEPE.,"PREESCOLAR COMUNITARIO MULTINIVEL, PRIMARIA MULTIGRADO, IV CICLO, III CICLO",Boaco,Teustepe,11,98
EL VENTARRON,12.47913900,-85.93593200,A 23 KMS. DE TEUSTEPE.,"PREESCOLAR COMUNITARIO MULTINIVEL, PRIMARIA MULTIGRADO",Boaco,Teustepe,11,98
FOWS VALENCIA,12.54428000,-85.75345000,20 KMS. AL NORTE DE TEUSTEPE.,"PRIMARIA MULTIGRADO, PREESCOLAR COMUNITARIO MULTINIVEL, III CICLO",Boaco,Teustepe,11,98
CENTRO ESCOLAR RUBEN DARIO.,12.36614700,-85.87773100,TEUSTEPE 12 KM. CARRETERA A MANAGUA.,"PREESCOLAR COMUNITARIO MULTINIVEL, PRIMARIA MULTIGRADO",Boaco,Teustepe,11,98
GRACIAS A DIOS (HORACIO RODRÍGUEZ),12.39887000,-85.85252000,EL BOQUERON 7 KM. CARRETERA A MANAGUA.,"PRIMARIA MULTIGRADO, PREESCOLAR FORMAL",Boaco,Teustepe,11,98
CENTRO ESCOLAR RAFAELA HERRERA.,12.52412000,-85.78787300,18 KMS. AL NORTE DE TEUSTEPE.,"PRIMARIA MULTIGRADO, PREESCOLAR COMUNITARIO MULTINIVEL",Boaco,Teustepe,11,98
CENTRO ESCOLAR GENOVEVA CAMPOS.,12.44345000,-85.69300000,DE TEUESTEPE 12  KM.  AL QUEBRACHO.,PRIMARIA MULTIGRADO,Boaco,Teustepe,11,98
CENTRO ESCOLAR ALEJANDRINO VERELA,12.42086700,-85.91350300,DE TEUSTEPE 18 KMS AL OESTE.,"PRIMARIA MULTIGRADO, PREESCOLAR COMUNITARIO",Boaco,Teustepe,11,98
CENTRO ESCOLAR MIGUEL RAMIREZ GOYENA.,12.52670000,-85.95870000,A 30 KM. DE TEUSTEPE.,"PREESCOLAR COMUNITARIO MULTINIVEL, SECUNDARIA EN EL CAMPO, PRIMARIA MULTIGRADO",Boaco,Teustepe,11,98
CAMILO ORTEGA,12.52611000,-85.97208000,DE TEUSTEPE 40 KMS AL CARAO.,"PRIMARIA MULTIGRADO, PREESCOLAR COMUNITARIO MULTINIVEL, III CICLO",Boaco,Teustepe,11,98
LUIS RAMON SERRANO,12.49618300,-85.91344500,DE TEUSTEPE 20 KMS AL CHILAMATE.,"PREESCOLAR COMUNITARIO MULTINIVEL, PRIMARIA MULTIGRADO",Boaco,Teustepe,11,98
LAS LIMAS,12.39957000,-85.79603000,4 KMS A LAS LIMAS.,PRIMARIA MULTIGRADO,Boaco,Teustepe,11,98
SIMON BOLIVAR,12.38886600,-85.87070200,DE TEUSTEPE 10 KMS AL VENTARRON.,"PRIMARIA MULTIGRADO, PREESCOLAR COMUNITARIO MULTINIVEL",Boaco,Teustepe,11,98
FRANCISCO MORAZAN,12.41198000,-85.81989000,DE TEUSTEPE 3KMS A PATASTULE.,"PRIMARIA MULTIGRADO, PREESCOLAR COMUNITARIO MULTINIVEL",Boaco,Teustepe,11,98
GUARDABARRANCO,12.49875300,-85.89190500,DE TEUSTEPE 18 KMS AL ESCOBILLO.,"PREESCOLAR COMUNITARIO, PRIMARIA MULTIGRADO",Boaco,Teustepe,11,98
CENTRO ESCOLAR LOS NEGRITOS,12.46208000,-85.90835000,30 KMS LOS NEGRITOS.,"SECUNDARIA EN EL CAMPO, PREESCOLAR COMUNITARIO, PRIMARIA MULTIGRADO",Boaco,Teustepe,11,98
GREGORIO OBANDO,12.32075300,-85.84369800,30 KM AL NORTE DE TEUSTEPE.,PRIMARIA MULTIGRADO,Boaco,Teustepe,11,98
FRANCISCO RODRIGUEZ VARGAS (EL MOJON),12.54968400,-85.93773600,DE TEUSTEPE 30 KM AL MOJÓN.,"PRIMARIA MULTIGRADO, PREESCOLAR COMUNITARIO MULTINIVEL",Boaco,Teustepe,11,98
SON ZAPOTE #3,12.45404000,-85.92968100,DE TEUSTEPE 33 KM A SON ZAPOTE #3.,"PREESCOLAR COMUNITARIO MULTINIVEL, PRIMARIA MULTIGRADO",Boaco,Teustepe,11,98
MARIA DOLORES ALEMAN,12.54028000,-85.90550000,DE TEUSTEPE 30KM AL TIERRA BLANCA.,PRIMARIA MULTIGRADO,Boaco,Teustepe,11,98
RENE NUÑEZ,12.51438000,-85.91964000,DE TEUSTEPE 26KM AL OESTE.,"PRIMARIA MULTIGRADO, PREESCOLAR COMUNITARIO MULTINIVEL",Boaco,Teustepe,11,98
SERGIO SOZA,12.35818000,-85.90125000,KM53  CARRETERA MANAGUA RAMA.,"PREESCOLAR COMUNITARIO MULTINIVEL, PRIMARIA MULTIGRADO",Boaco,Teustepe,11,98
CENTRO ESCOLAR LAURE LEE SCHEIDEMAN,12.41890000,-85.74608000,EMPALME DE BOACO.,"SECUNDARIA REGULAR, III CICLO, IV CICLO",Boaco,Teustepe,11,98
OTTO DE LA ROCHA,12.48997000,-85.96686000,A 40 KMS DE TEUSTEPE.,"PRIMARIA MULTIGRADO, PREESCOLAR COMUNITARIO MULTINIVEL",Boaco,Teustepe,11,98
ARLEN SIU,12.49041000,-85.85386200,16KM DE TEUSTEPE.,"PRIMARIA MULTIGRADO, III CICLO, PREESCOLAR COMUNITARIO MULTINIVEL",Boaco,Teustepe,11,98
GERMAN POMARES ORDOÑEZ,12.50522900,-85.90072000,22 KM AL NOROESTE DE TEUSTEPE.,"PREESCOLAR COMUNITARIO, PRIMARIA MULTIGRADO",Boaco,Teustepe,11,98
BRAULIO GUZMAN GARCIA,12.42902000,-85.68040000,15 KM AL ESTE DE TEUSTEPE.,PRIMARIA MULTIGRADO,Boaco,Teustepe,11,98
CENTRO ESCOLAR AUGUSTO C. SANDINO,12.38781500,-85.88504700,DEL KM 60 CARRETERA MANAGUA RAMA 900 VRS AL NORTE.,"PREESCOLAR COMUNITARIO MULTINIVEL, PRIMARIA MULTIGRADO",Boaco,Teustepe,11,98
CENTRO ESCOLAR CARLOS FONSECA AMADOR,12.51869400,-85.81233800,DE TEUSTEPE 18KM AL NORTE.,PRIMARIA MULTIGRADO,Boaco,Teustepe,11,98
CENTRO ESCOLAR ERNESTO CHE GUEVARA,12.50492000,-85.97910000,DE TEUSTEPE 48 KM AL OESTE.,PRIMARIA MULTIGRADO,Boaco,Teustepe,11,98
CENTRO ESCOLAR GERAL RAMIRO MEJIA,12.33995000,-85.72899000,SECTOR LAS TORREZ.,PRIMARIA MULTIGRADO,Boaco,Teustepe,11,98
CENTRO ESCOLAR ASUNCION DE MARIA,12.42014908,-85.80121152,CEMENTERIO VIEJO 1 1/2 C. AL SUR.,"PRIMARIA REGULAR, PREESCOLAR FORMAL",Boaco,Teustepe,11,98
