Nombre,school_id,Latitud,Longitud,Direccion,modality_labels,modality_ids,program_ids,program_labels,department,municipality,dep_id,mun_id
SAN JOSÉ,4216,12.59718900,-85.66285500,EL BEJUCO.,PRIMARIA MULTIGRADO,14,2,PRIMARIA,Boaco,Boaco,11,100
ARMIDA BRAVO,4320,12.53024000,-85.66192000,BUENA VISTA.,"PREESCOLAR COMUNITARIO MULTINIVEL,PRIMARIA MULTIGRADO","10,14",2,PRIMARIA,Boaco,Boaco,11,100
PREESCOLAR LOS VALLES,4327,12.58205000,-85.65926000,CASERIO DE LOS VALLES.,"PREESCOLAR COMUNITARIO MULTINIVEL,PRIMARIA MULTIGRADO","10,14",2,PRIMARIA,Boaco,Boaco,11,100
C.D.I DIVINO NIÑO JESÚS (OSCAR DÍAZ),4328,12.46960000,-85.66240000,SILAIS 1 ½ C. AL ESTE ½ AL SUR.,PREESCOLAR FORMAL,2,,,Boaco,Boaco,11,100
CENTRO ESCOLAR JULIA GARCIA LARGAESPADA,4329,12.47261000,-85.65488000,BARRIO TIERRA BLANCA.,"PREESCOLAR FORMAL,Primaria Comunitaria JYA,PRIMARIA ACELERADA(CEDA),PRIMARIA REGULAR,PREESCOLAR COMUNITARIO","2,65,12,3,1","2,6,2","PRIMARIA,CEDA,PRIMARIA",Boaco,Boaco,11,100
CENTRO ESCOLAR SAN MIGUEL,4330,12.47596000,-85.66053000,DE LA KODAK  3 C. AL NORTE ½ AL ESTE.,"PREESCOLAR FORMAL MULTINIVEL,III CICLO,IV CICLO,PRIMARIA REGULAR","11,107,109,3",2,PRIMARIA,Boaco,Boaco,11,100
INSTITUTO NACIONAL PUBLICO DE BOACO ROSA CERDA AMADOR,4331,12.47523000,-85.64602000,CARRETERA  AL ATLANTICO FTE. A CERVECERIA VICTORIA.,SECUNDARIA REGULAR,5,3,SECUNDARIA,Boaco,Boaco,11,100
CENTRO ESCOLAR ANGELITA ROBLETO BARQUERO.,4332,12.46740800,-85.66105000,DETRÁS DEL HOSPITAL JOSE NIEWROSKI.,"PREESCOLAR FORMAL MULTINIVEL,PRIMARIA REGULAR","11,3",2,PRIMARIA,Boaco,Boaco,11,100
CENTRO ESCOLAR JUANA SOLBALVARRO,4333,12.46953000,-85.65738000,COSTADO NORTE DEL MERCADO MUNICIPAL.,"Primaria Comunitaria JYA,PREESCOLAR FORMAL,ALFABETIZACION,PRIMARIA REGULAR","65,2,63,3","2,7,2","PRIMARIA,ALFABETIZACION,PRIMARIA",Boaco,Boaco,11,100
CENTRO ESCOLAR EMILIO SOBALVARRO SUAREZ.,4334,12.47140000,-85.66042000,CRUZ ROJA UNA CUADRA AL OESTE.,"PRIMARIA REGULAR,PREESCOLAR COMUNITARIO,SECUNDARIA POR ENCUENTRO,PREESCOLAR FORMAL MULTINIVEL","3,1,13,11","2,3","PRIMARIA,SECUNDARIA",Boaco,Boaco,11,100
SAGRADO CORAZON DE JESUS,4335,12.47310000,-85.66200000,CONTIGUO AL C DE C Y EVENTOS.,"PREESCOLAR FORMAL MULTINIVEL,PRIMARIA REGULAR","11,3",2,PRIMARIA,Boaco,Boaco,11,100
AMINA AUXILIADORA ABDALLAH ALEMAN.,4336,12.61600000,-85.36419000,COMUNIDAD EL CONGO VILLA LA VEGA.,"PRIMARIA MULTIGRADO,PREESCOLAR COMUNITARIO MULTINIVEL","14,10",2,PRIMARIA,Boaco,Boaco,11,100
CENTRO ESCOLAR CARLOS MEJIA GODOY.,4337,12.44250000,-85.67060000,5 KMS. AL SUR DE BOACO.,"PRIMARIA MULTIGRADO,PREESCOLAR COMUNITARIO MULTINIVEL","14,10",2,PRIMARIA,Boaco,Boaco,11,100
CENTRO ESCOLAR MEDALLA MILAGROSA.,4338,12.45206000,-85.63811000,CERRO LARGO 15 KM. AL SUR.,"PRIMARIA MULTIGRADO,PREESCOLAR COMUNITARIO MULTINIVEL","14,10",2,PRIMARIA,Boaco,Boaco,11,100
SANTA RITA (QUEBRACHITO),4340,12.43200000,-85.66058000,COMARCA EL QUEBRACHITO.,"PRIMARIA MULTIGRADO,PREESCOLAR COMUNITARIO MULTINIVEL","14,10",2,PRIMARIA,Boaco,Boaco,11,100
CENTRO ESCOLAR JOSÉ CECILIO DEL VALLE.,4341,12.41130000,-85.61230000,COMARCA TORREZ.,"PRIMARIA MULTIGRADO,PREESCOLAR COMUNITARIO","14,1",2,PRIMARIA,Boaco,Boaco,11,100
CENTRO ESCOLAR ANDRES CASTRO.,4342,12.46960000,-85.58860000,14 KMS. DE BOACO CARRETERA A CAMOAPA.,"PRIMARIA MULTIGRADO,PREESCOLAR COMUNITARIO MULTINIVEL","14,10",2,PRIMARIA,Boaco,Boaco,11,100
CENTRO ESCOLAR JOSÉ DE LA CRUZ MENA.,4343,12.47455000,-85.56549000,DE LA CAPILLA CATOLICA 200 VRS CARRETERA A CAMOAPA.,"PREESCOLAR COMUNITARIO MULTINIVEL,PRIMARIA MULTIGRADO","10,14",2,PRIMARIA,Boaco,Boaco,11,100
CENTRO ESCOLAR SAN LUIS.,4344,12.46924000,-85.61326000,9 KM. DE BOACO ESTE.,"PRIMARIA MULTIGRADO,PREESCOLAR COMUNITARIO MULTINIVEL","14,10",2,PRIMARIA,Boaco,Boaco,11,100
CENTRO ESCOLAR ASUNCIÒN ARMENGOL ORTIZ.,4345,12.44269000,-85.60624000,AL SUR 18 KM. CARRETERA A CAMOAPA.,"PRIMARIA MULTIGRADO,PREESCOLAR COMUNITARIO MULTINIVEL","14,10",2,PRIMARIA,Boaco,Boaco,11,100
CENTRO ESCOLAR LEOVIJILDO JIRÒN PAZ.,4346,12.42518000,-85.58017000,BUENA VISTA # 1.,"PREESCOLAR COMUNITARIO MULTINIVEL,PREESCOLAR COMUNITARIO,PRIMARIA MULTIGRADO","10,1,14",2,PRIMARIA,Boaco,Boaco,11,100
CENTRO ESCOLAR SAN FRANCISCO DE ASIS.,4347,12.48133000,-85.54134100,"ESC,  TULE ORIENTAL.","ALFABETIZACION,PRIMARIA REGULAR,PRIMARIA MULTIGRADO,PREESCOLAR COMUNITARIO MULTINIVEL,III CICLO","63,3,14,10,107","7,2,2","ALFABETIZACION,PRIMARIA,PRIMARIA",Boaco,Boaco,11,100
CENTRO ESCOLAR CONCEPCIÒN DE MARIA.,4348,12.47212000,-85.53586000,DEL CENTRO ROBERTO GUILLEN B. 3 KMS AL OESTE.,"PRIMARIA MULTIGRADO,PREESCOLAR COMUNITARIO MULTINIVEL","14,10",2,PRIMARIA,Boaco,Boaco,11,100
CENTRO ESCOLAR SALVADORA CASTILLO.,4349,12.49103000,-85.50375000,DE LA CAPILLA SANTA MARIA LA REYNA 300 MTS AL ESTE.,"PRIMARIA MULTIGRADO,PREESCOLAR COMUNITARIO MULTINIVEL","14,10",2,PRIMARIA,Boaco,Boaco,11,100
CENTRO ESCOLAR CRISTO REY.,4350,12.61028300,-85.54089100,A 35 KM. FUERA DE BOACO CARRETERA A RIO BLANCO.,"PREESCOLAR COMUNITARIO MULTINIVEL,PRIMARIA MULTIGRADO,PRIMARIA REGULAR","10,14,3","2,2","PRIMARIA,PRIMARIA",Boaco,Boaco,11,100
CENTRO ESCOLAR SANTA TERESA.,4351,12.61028300,-85.54089100,KILOMETRO 25 CARRETERA A RIO BLANCO.,"SECUNDARIA POR ENCUENTRO,PREESCOLAR COMUNITARIO MULTINIVEL,PRIMARIA MULTIGRADO","13,10,14","3,2","SECUNDARIA,PRIMARIA",Boaco,Boaco,11,100
SAN MIGUEL DE SACAL,4352,12.51852000,-85.57665000,15 KM. CARRETERA A RIO BLANCO.,"SECUNDARIA REGULAR,PREESCOLAR COMUNITARIO MULTINIVEL,SECUNDARIA EN EL CAMPO,PRIMARIA MULTIGRADO","5,10,30,14","3,3,2","SECUNDARIA,SECUNDARIA,PRIMARIA",Boaco,Boaco,11,100
CENTRO ESCOLAR SAN FRANCISCO DE AZIS,4353,12.65680000,-85.57153000,COMUNIDAD DE WIWAS Nº 1.,PRIMARIA MULTIGRADO,14,2,PRIMARIA,Boaco,Boaco,11,100
CENTRO ESCOLAR RAFAELA HERRERA.,4354,12.52388000,-85.52262000,24 KM AL ESTE.,"PRIMARIA MULTIGRADO,PREESCOLAR COMUNITARIO MULTINIVEL,III CICLO","14,10,107",2,PRIMARIA,Boaco,Boaco,11,100
SANTA ROSA DE SACAL,4355,12.51381200,-85.55565300,SANTA ROSA SACAL A 20 KM..,"PREESCOLAR COMUNITARIO MULTINIVEL,PRIMARIA MULTIGRADO","10,14",2,PRIMARIA,Boaco,Boaco,11,100
SAN JOSE DE SACAL,4356,12.62827000,-85.52131000,SANTA ROSA DE SACAL A 20 KM..,"PRIMARIA MULTIGRADO,PREESCOLAR COMUNITARIO MULTINIVEL","14,10",2,PRIMARIA,Boaco,Boaco,11,100
CENTRO ESCOLAR SAN JERÓNIMO.,4357,12.49820000,-85.53876000,HACIENDA LOS LAURELES.,"PRIMARIA MULTIGRADO,PREESCOLAR COMUNITARIO MULTINIVEL","14,10",2,PRIMARIA,Boaco,Boaco,11,100
CENTRO ESCOLAR PEDRO JOAQUIN CHAMORRO.,4358,12.49930000,-85.51414000,CUADRO DE BASSEBALL 25 VRS. AL SUR.,"PREESCOLAR COMUNITARIO MULTINIVEL,SECUNDARIA POR ENCUENTRO,PRIMARIA REGULAR,PRIMARIA MULTIGRADO","10,13,3,14","3,2,2","SECUNDARIA,PRIMARIA,PRIMARIA",Boaco,Boaco,11,100
CENTRO ESCOLAR VICTORIA MOLINA TINOCO.,4359,12.51078000,-85.49573000,COOP. ARGELIA 2 KM. AL ESTE.,"PREESCOLAR COMUNITARIO MULTINIVEL,III CICLO,ALFABETIZACION,PRIMARIA REGULAR,PRIMARIA MULTIGRADO","10,107,63,3,14","7,2,2","ALFABETIZACION,PRIMARIA,PRIMARIA",Boaco,Boaco,11,100
CENTRO ESCOLAR DR. JAIME INCER BARQUERO.,4360,12.57573000,-85.50175000,CARRETERA A LAS MERCEDES.,"PREESCOLAR COMUNITARIO MULTINIVEL,PRIMARIA MULTIGRADO","10,14",2,PRIMARIA,Boaco,Boaco,11,100
SAN ISIDRO,4361,12.55529000,-85.49109000,SAN ISIDRO.,"PRIMARIA MULTIGRADO,PREESCOLAR COMUNITARIO MULTINIVEL","14,10",2,PRIMARIA,Boaco,Boaco,11,100
SAN ANDRES ALTO,4362,12.56237000,-85.57460000,5  KMS. ALNORTE DE LA COMUNIDAD EL PARAISO.,"PREESCOLAR COMUNITARIO MULTINIVEL,PRIMARIA MULTIGRADO","10,14",2,PRIMARIA,Boaco,Boaco,11,100
CENTRO ESCOLAR EDGAR SANTA MARIA.,4363,12.59505000,-85.60890000,CARRETERA A KUMAICA SUR KILOMETRO 20.,"PRIMARIA MULTIGRADO,PREESCOLAR COMUNITARIO MULTINIVEL","14,10",2,PRIMARIA,Boaco,Boaco,11,100
CENTRO ESCOLAR SAN JOSE DE BAGUAS,4364,12.60037800,-85.49390000,CARRETERA A  LA VEGA.,"PREESCOLAR COMUNITARIO MULTINIVEL,PRIMARIA MULTIGRADO","10,14",2,PRIMARIA,Boaco,Boaco,11,100
CENTRO ESCOLAR EMILIO VILLATORO OBANDO.,4365,12.68639000,-85.29427000,SAN JOSE DE LA VEGA.,"III CICLO,PREESCOLAR COMUNITARIO MULTINIVEL,IV CICLO,PRIMARIA MULTIGRADO","107,10,109,14",2,PRIMARIA,Boaco,Boaco,11,100
CENTRO ESCOLAR 15 DE SEPTIEMBRE.,4366,12.63638000,-85.47416000,CARRETERA QUE CONDUCE A LA VEGA.,"PRIMARIA MULTIGRADO,PREESCOLAR COMUNITARIO MULTINIVEL","14,10",2,PRIMARIA,Boaco,Boaco,11,100
CENTRO ESCOLAR JOSÉ DOLORES ESTRADA.,4367,12.61974600,-85.50277800,COMUNIDAD BAGUAS ENTRADA EL PORTILLO.,"PRIMARIA MULTIGRADO,PREESCOLAR COMUNITARIO MULTINIVEL","14,10",2,PRIMARIA,Boaco,Boaco,11,100
CENTRO ESCOLAR JESUS DE NAZARETH.,4368,12.64049100,-85.43734100,SANTA ELISA.,"PRIMARIA MULTIGRADO,SECUNDARIA POR ENCUENTRO,PREESCOLAR COMUNITARIO MULTINIVEL","14,13,10","2,3","PRIMARIA,SECUNDARIA",Boaco,Boaco,11,100
CENTRO ESCOLAR GALA DEL SOCORRO LOPEZ.,4369,12.60117600,-85.39496000,LAS BRISAS CARRETERA A LA VEGA.,"PREESCOLAR COMUNITARIO MULTINIVEL,SECUNDARIA POR ENCUENTRO,ALFABETIZACION,PRIMARIA MULTIGRADO","10,13,63,14","3,7,2","SECUNDARIA,ALFABETIZACION,PRIMARIA",Boaco,Boaco,11,100
CENTRO ESCOLAR EVARISTO GARCIA MONTANO.,4370,12.66777500,-85.31603300,CARRETERA A SAN JOSE DE LA VEGA.,"PREESCOLAR COMUNITARIO MULTINIVEL,PRIMARIA MULTIGRADO","10,14",2,PRIMARIA,Boaco,Boaco,11,100
CENTRO ESCOLAR SAN JUAN.,4371,12.69247000,-85.45506000,TABACAL SUR.,PRIMARIA MULTIGRADO,14,2,PRIMARIA,Boaco,Boaco,11,100
CENTRO ESCOLAR TABACAL NORTE MIGUEL LARREYNAGA,4372,12.70672000,-85.40733000,TABACAL SAN PABLO.,"PRIMARIA MULTIGRADO,PREESCOLAR COMUNITARIO MULTINIVEL","14,10",2,PRIMARIA,Boaco,Boaco,11,100
CENTRO ESCOLAR ENMANUEL MONGALO.,4373,12.59138600,-85.37707100,CARRETERA LA VEGA EMPALME EL CONGO.,"PRIMARIA MULTIGRADO,PREESCOLAR COMUNITARIO MULTINIVEL","14,10",2,PRIMARIA,Boaco,Boaco,11,100
SAN NICOLAS,4374,12.48924000,-85.65303000,CARRETERA A SAN BUENA VENTURA.,"III CICLO,PRIMARIA REGULAR,IV CICLO,PREESCOLAR FORMAL MULTINIVEL,PRIMARIA MULTIGRADO","107,3,109,11,14","2,2","PRIMARIA,PRIMARIA",Boaco,Boaco,11,100
CENTRO ESCOLAR ANDRÉS GONZÁLES CASTILLO.,4375,12.60148000,-85.64371000,CAPITAN Nº 1.,"PRIMARIA MULTIGRADO,PREESCOLAR COMUNITARIO MULTINIVEL","14,10",2,PRIMARIA,Boaco,Boaco,11,100
SAN JUAN BAUTISTA,4376,12.50198000,-85.63956000,FTE. A LA BASE MILITAR.,"PRIMARIA MULTIGRADO,PREESCOLAR COMUNITARIO MULTINIVEL","14,10",2,PRIMARIA,Boaco,Boaco,11,100
TASWA SAN RAMON,4377,12.57587000,-85.63613000,TIENDA CAMPESINA 5 C. AL OESTE.,"PREESCOLAR COMUNITARIO MULTINIVEL,PRIMARIA MULTIGRADO","10,14",2,PRIMARIA,Boaco,Boaco,11,100
CENTRO ESCOLAR SANTA SOFIA.,4378,12.60968000,-85.59299000,COMARCA TASWA #2.,"PREESCOLAR COMUNITARIO,PRIMARIA MULTIGRADO","1,14",2,PRIMARIA,Boaco,Boaco,11,100
CENTRO ESCOLAR OLIVIA SOMOZA,4379,12.53566000,-85.62746000,FTE. A CASA DE BAYARDO ROBLETO.,"PRIMARIA MULTIGRADO,PREESCOLAR COMUNITARIO MULTINIVEL,SECUNDARIA EN EL CAMPO","14,10,30","2,3","PRIMARIA,SECUNDARIA",Boaco,Boaco,11,100
CENTRO ESCOLAR JESUS DE LAS BUENAS ESPERANZA.,4380,12.62053000,-85.63028300,CARRETERA A CUMAICA SUR.,"PRIMARIA MULTIGRADO,PREESCOLAR COMUNITARIO MULTINIVEL","14,10",2,PRIMARIA,Boaco,Boaco,11,100
CENTRO ESCOLAR LETICIA SOTELO CORONADO.,4381,12.51834200,-85.65279400,COMARCA SAGUATEPE.,"PRIMARIA MULTIGRADO,PREESCOLAR COMUNITARIO MULTINIVEL","14,10",2,PRIMARIA,Boaco,Boaco,11,100
CENTRO ESCOLAR MONSEÑOR RAFAEL OBREGÒN.,4382,12.51792000,-85.61118000,BASE MILITAR 4 KM. AL ESTE.,"PREESCOLAR COMUNITARIO MULTINIVEL,PRIMARIA MULTIGRADO","10,14",2,PRIMARIA,Boaco,Boaco,11,100
CENTRO ESCOLAR SAN JORGE.,4383,12.52273000,-85.60789000,ENTRADA AL BALSAMO KM 13½ SAN BUENAVENTURA.,"PREESCOLAR COMUNITARIO MULTINIVEL,PRIMARIA MULTIGRADO","10,14",2,PRIMARIA,Boaco,Boaco,11,100
SAN ANDRES BAJO,4384,12.57408000,-85.60544000,COMARCA SAN ANDRES BAJO.,"PREESCOLAR COMUNITARIO MULTINIVEL,PRIMARIA MULTIGRADO","10,14",2,PRIMARIA,Boaco,Boaco,11,100
CENTRO ESCOLAR SAN MARTIN,4385,12.63284000,-85.60600000,CASA DE AGUSTIN URBINA 120 VRS. AL NORTE.,"PRIMARIA MULTIGRADO,PREESCOLAR COMUNITARIO MULTINIVEL","14,10",2,PRIMARIA,Boaco,Boaco,11,100
CENTRO ESCOLAR SIMÒN BOLIVAR.,4386,12.61041000,-85.65632000,COMARCA EL BEJUCO.,"PREESCOLAR COMUNITARIO,PRIMARIA MULTIGRADO","1,14",2,PRIMARIA,Boaco,Boaco,11,100
SALOMÓN DE LA SELVA (EL TRAPICHITO),4387,12.69888000,-85.38485000,"CTRA. A SAN JOSE LA VEGA, ENTRADA A LOS TABACALES.","III CICLO,PRIMARIA MULTIGRADO,PREESCOLAR COMUNITARIO MULTINIVEL","107,14,10",2,PRIMARIA,Boaco,Boaco,11,100
CENTRO ESCOLAR MARIA AUXILIADORA.,4389,12.45580000,-85.53331000,VILLA BOACO VIEJO.,"III CICLO,IV CICLO,PRIMARIA REGULAR,SECUNDARIA REGULAR,PREESCOLAR FORMAL MULTINIVEL","107,109,3,5,11","2,3","PRIMARIA,SECUNDARIA",Boaco,Boaco,11,100
RUBEN DARIO,4390,12.69537000,-85.54693000,FTE. AL CENTRO DE SALUD.,"PREESCOLAR FORMAL MULTINIVEL,SECUNDARIA REGULAR,PRIMARIA REGULAR","11,5,3","3,2","SECUNDARIA,PRIMARIA",Boaco,Boaco,11,100
SANTA JUANA,4391,12.56533000,-85.62700000,CARRETERA A CUMAICA.,"PREESCOLAR COMUNITARIO MULTINIVEL,PRIMARIA MULTIGRADO,ALFABETIZACION","10,14,63","2,7","PRIMARIA,ALFABETIZACION",Boaco,Boaco,11,100
PRE ESCOLAR TULIA C. BARQUERO (MAURICIO DUARTE),4392,12.47267000,-85.66118000,POLICIA NAC. ½ C. AL OESTE.,PREESCOLAR FORMAL,2,,,Boaco,Boaco,11,100
CENTRO ESCOLAR JOAQUIN PASOS.,4393,12.56257000,-85.45124000,34 KM. AL ESTE.,"PRIMARIA MULTIGRADO,PREESCOLAR COMUNITARIO MULTINIVEL,SECUNDARIA EN EL CAMPO,III CICLO,ALFABETIZACION,PRIMARIA REGULAR","14,10,30,107,63,3","2,3,7,2","PRIMARIA,SECUNDARIA,ALFABETIZACION,PRIMARIA",Boaco,Boaco,11,100
EL JORDAN,4394,12.46930000,-85.65890000,PROFAMILIA 25 VRS. AL NORTE.,"PREESCOLAR FORMAL MULTINIVEL,SECUNDARIA REGULAR,PRIMARIA REGULAR","11,5,3","3,2","SECUNDARIA,PRIMARIA",Boaco,Boaco,11,100
CENTRO ESCOLAR CELESTINA ROBLETO.,4395,12.57101500,-85.54355100,22 KM. AL ESTE DE BOACO.,"PREESCOLAR COMUNITARIO MULTINIVEL,III CICLO,IV CICLO,PRIMARIA MULTIGRADO","10,107,109,14",2,PRIMARIA,Boaco,Boaco,11,100
CENTRO ESCOLAR ROBERTO GUILLEN BARQUERO.,4396,12.47510200,-85.51898100,BOACO VIEJO CARRETERA A  LA REYNA  Nº 1.,"PRIMARIA MULTIGRADO,PREESCOLAR COMUNITARIO MULTINIVEL","14,10",2,PRIMARIA,Boaco,Boaco,11,100
CENTRO ESCOLAR SANTA INES (AMALIA MIRANDA.),4397,12.39338000,-85.62516000,COMARCA SANTA INES FTE. A LA IGLESIA.,"SECUNDARIA EN EL CAMPO,PRIMARIA MULTIGRADO,PREESCOLAR FORMAL MULTINIVEL","30,14,11","3,2","SECUNDARIA,PRIMARIA",Boaco,Boaco,11,100
CENTRO ESCOLAR CRISTOBAL CALERO.,4398,12.68543600,-85.36571000,COMARCA LA REFORMA.,"PREESCOLAR COMUNITARIO MULTINIVEL,PRIMARIA MULTIGRADO","10,14",2,PRIMARIA,Boaco,Boaco,11,100
CENTRO ESCOLAR SANTOS ALFONZO HURTADO GARCIA,4399,12.63314000,-85.33360000,CAÑO BLANCO #1 CARRETERA A LA VEGA.,"PRIMARIA MULTIGRADO,PREESCOLAR COMUNITARIO MULTINIVEL","14,10",2,PRIMARIA,Boaco,Boaco,11,100
CENTRO ESCOLAR SAN ANTONIO LOS RODRIGUEZ.,4400,12.55664000,-85.53085000,COMARCA LOS RODRIGUEZ.,"PRIMARIA MULTIGRADO,PREESCOLAR COMUNITARIO MULTINIVEL","14,10",2,PRIMARIA,Boaco,Boaco,11,100
CENTRO ESCOLAR AZARIAS H. PALLAIS.,4401,12.48843000,-85.60949000,LAS CAÑAS 8 KM. AL OESTE DE BOACO.,"PRIMARIA MULTIGRADO,PREESCOLAR COMUNITARIO MULTINIVEL","14,10",2,PRIMARIA,Boaco,Boaco,11,100
CENTRO ESCOLAR FRANCISCO SALGADO SEQUEIRA.,4402,12.65963800,-85.44519000,COMUNIDAD TABACAL NORTE.,PRIMARIA MULTIGRADO,14,2,PRIMARIA,Boaco,Boaco,11,100
COLEGIO SAN VICENTE DE PAUL,4403,12.47320000,-85.66280000,ENACAL 30 VRS. AL NORTE.,"PREESCOLAR FORMAL,SECUNDARIA REGULAR,PREESCOLAR FORMAL MULTINIVEL,PRIMARIA REGULAR","2,5,11,3","3,2","SECUNDARIA,PRIMARIA",Boaco,Boaco,11,100
CENTRO ESCOLAR ALFONZO CORTÉZ.,4404,12.65285900,-85.39348000,CARRETERA A LA REFORMA.,"PREESCOLAR COMUNITARIO,PRIMARIA A DISTANCIA EN EL CAMPO,PRIMARIA MULTIGRADO","1,56,14","2,2","PRIMARIA,PRIMARIA",Boaco,Boaco,11,100
CENTRO ESCOLAR JOSÉ DOMINGO SEGURA,4405,12.51433000,-85.45952000,FINCA SANTA BARBARA 4 KM. AL NORTE.,"PRIMARIA MULTIGRADO,PREESCOLAR COMUNITARIO MULTINIVEL","14,10",2,PRIMARIA,Boaco,Boaco,11,100
CENTRO ESCOLAR ARMANDO INCER BARQUERO.,4406,12.55004700,-85.64082000,COMARCA ALTOS DE SAN BUENAVENTURA.,"PRIMARIA MULTIGRADO,PREESCOLAR COMUNITARIO MULTINIVEL","14,10",2,PRIMARIA,Boaco,Boaco,11,100
CENTRO ESCOLAR MIGUEL FLORES.,4407,12.43749000,-85.57442000,WIRRUCA.,"PRIMARIA MULTIGRADO,PREESCOLAR COMUNITARIO MULTINIVEL","14,10",2,PRIMARIA,Boaco,Boaco,11,100
CENTRO ESCOLAR 14 DE SEPTIEMBRE.,4408,12.65570000,-85.59863000,WIWAS Nº 2.,PRIMARIA MULTIGRADO,14,2,PRIMARIA,Boaco,Boaco,11,100
CENTRO ESCOLAR SAN JOSÉ RIO NEGRO.,4409,12.55627000,-85.41102000,CARRETERA A RIO NEGRO.,"PRIMARIA MULTIGRADO,PREESCOLAR COMUNITARIO MULTINIVEL","14,10",2,PRIMARIA,Boaco,Boaco,11,100
CENTRO ESCOLAR LUIS ALFONSO SOTELO HERNADEZ (EL JABILLO),4410,12.61374000,-85.32164000,COMUNIDAD EL JABILLO.,"PREESCOLAR COMUNITARIO,PRIMARIA MULTIGRADO","1,14",2,PRIMARIA,Boaco,Boaco,11,100
CENTRO ESCOLAR CORAZON DE MARIA.,4411,12.61516000,-85.56202000,COMARCA EL PUEBLITO DEL PORTON 4 KMS AL NOROESTE.,"PREESCOLAR COMUNITARIO MULTINIVEL,PRIMARIA MULTIGRADO","10,14",2,PRIMARIA,Boaco,Boaco,11,100
CENTRO ESCOLAR JOSEFA DOLORES CAMPOS.,4412,12.49293000,-85.55917000,ENTRADA HACENDO ENRIQUE 5 KM. AL SUR.,"PREESCOLAR COMUNITARIO MULTINIVEL,EBA,PRIMARIA MULTIGRADO","10,102,14",2,PRIMARIA,Boaco,Boaco,11,100
MIGUEL OBANDO BRAVO,4413,12.60132800,-85.62422000,CARRETERA A SAN BUENAVENTURA KM 21.,"PREESCOLAR COMUNITARIO MULTINIVEL,PRIMARIA MULTIGRADO","10,14",2,PRIMARIA,Boaco,Boaco,11,100
CENTRO ESCOLAR SANTA RITA (LOS PLANES),4414,12.56736600,-85.36113500,CASERIOS LOS PLANES.,"PREESCOLAR COMUNITARIO MULTINIVEL,PRIMARIA MULTIGRADO","10,14",2,PRIMARIA,Boaco,Boaco,11,100
CENTRO ESCOLAR CRISTO REY (BARRIO NUEVO),4415,12.66259000,-85.42822000,CARRETERA A LA VEGA DESVIO A Bº NUEVO DE BOACO 45 KMS.,"PREESCOLAR COMUNITARIO MULTINIVEL,PRIMARIA MULTIGRADO","10,14",2,PRIMARIA,Boaco,Boaco,11,100
CENTRO ESCOLAR MATÍAS ORDEÑANA,4416,12.67605000,-85.47873000,COMARCA TABACAL SUBSÉCTOR SUR.,PRIMARIA MULTIGRADO,14,2,PRIMARIA,Boaco,Boaco,11,100
CENTRO ESCOLAR NIÑO JESÚS DE PRAGA,4417,12.69219000,-85.42735000,TABACAL CENTRAL.,"PRIMARIA MULTIGRADO,PREESCOLAR COMUNITARIO MULTINIVEL,ALFABETIZACION","14,10,63","2,7","PRIMARIA,ALFABETIZACION",Boaco,Boaco,11,100
LA ESPERANZA,4418,12.65536000,-85.62159000,COMARCA EL CAPITAN SECTOR CERRO GRANDE.,"PRIMARIA MULTIGRADO,PREESCOLAR COMUNITARIO","14,1",2,PRIMARIA,Boaco,Boaco,11,100
SAN FELIPE (FILAS DE BAGUAS),4419,12.61244000,-85.46172000,FILAS DE BAGUAS.,"PRIMARIA MULTIGRADO,PREESCOLAR COMUNITARIO MULTINIVEL","14,10",2,PRIMARIA,Boaco,Boaco,11,100
SAN PABLO,4420,12.64306000,-85.29412000,CARRETERA A LA VEGA ENTRADA AL ARENAL.,"PRIMARIA MULTIGRADO,PREESCOLAR COMUNITARIO MULTINIVEL","14,10",2,PRIMARIA,Boaco,Boaco,11,100
VIRGEN DE GUADALUPE,4421,12.52908100,-85.64302800,CERRO GRANDE.,"PRIMARIA MULTIGRADO,PREESCOLAR COMUNITARIO MULTINIVEL","14,10",2,PRIMARIA,Boaco,Boaco,11,100
NUESTRA SEÑORA DEL CARMEN,4422,12.53429300,-85.49525000,COMARCA SAN ISIDRO #2.,"PRIMARIA MULTIGRADO,PREESCOLAR COMUNITARIO MULTINIVEL","14,10",2,PRIMARIA,Boaco,Boaco,11,100
SAN MARCOS,4423,12.60778000,-85.35115000,CARRETERA A LA VEGA DE BOACO A 62 KM.,"PREESCOLAR COMUNITARIO,PRIMARIA MULTIGRADO","1,14",2,PRIMARIA,Boaco,Boaco,11,100
ESCUELA ESPECIAL LIDIA VALDIVIA,4424,12.47040000,-85.66225000,COLEGIO EMILIO SOBALVARRO 3C AL OESTE.,"INCLUSION SOCIO LABORAL,EDUCACION TEMPRANA,PREES. FORMAL EN EDUC. ESPECIAL,PRIM. REGULAR EN EDUC. ESPECIAL","23,24,59,60",,,Boaco,Boaco,11,100
SAN SEBASTÍAN,4425,12.69932000,-85.49445000,CARRETERA RÍO BLANCO.,"PRIMARIA MULTIGRADO,PREESCOLAR COMUNITARIO MULTINIVEL","14,10",2,PRIMARIA,Boaco,Boaco,11,100
SALOMON IBARRA MAYORGA,4426,12.61431300,-85.61712800,FILAS VERDE SECTOR PIEDRA SEMBRADA.,"PREESCOLAR COMUNITARIO,PRIMARIA MULTIGRADO","1,14",2,PRIMARIA,Boaco,Boaco,11,100
REYNA ISABEL TERMINIO MENDEZ,4427,12.47650000,-85.65402000,CASA COMUNAL.,"PREESCOLAR COMUNITARIO MULTINIVEL,PRIMARIA MULTIGRADO","10,14",2,PRIMARIA,Boaco,Boaco,11,100
SUSANA MARIA GOMEZ MENDOZA,4428,12.48113500,-85.64793100,FRENTE A LA BARRERA.,"PRIMARIA MULTIGRADO,PREESCOLAR COMUNITARIO MULTINIVEL","14,10",2,PRIMARIA,Boaco,Boaco,11,100
CENTRO ESCOLAR DOCTOR MOISES SOTELO,4429,12.55114000,-85.42861000,40 KMS CARRETERA A RIO NEGRO.,"PREESCOLAR COMUNITARIO MULTINIVEL,PRIMARIA MULTIGRADO","10,14",2,PRIMARIA,Boaco,Boaco,11,100
CENTRO ESCOLAR JUAN BAUTISTA ARRIEN,4430,12.43839000,-85.63063000,LAS CAÑITAS.,PRIMARIA MULTIGRADO,14,2,PRIMARIA,Boaco,Boaco,11,100
CARLOS FONSECA,4431,12.56928000,-85.58577000,SAN ANDRES BAJO NO. 2.,"PRIMARIA MULTIGRADO,PREESCOLAR COMUNITARIO","14,1",2,PRIMARIA,Boaco,Boaco,11,100
CENTRO ESCOLAR NORMAN ARROLIGA,4432,12.60303000,-85.30467000,IGLESIA EL BUEN PASTOR.,"PREESCOLAR COMUNITARIO MULTINIVEL,PRIMARIA MULTIGRADO","10,14",2,PRIMARIA,Boaco,Boaco,11,100
MIGUEL DE CASTILLA,4433,12.54742000,-85.37926000,CARRETERA DE RIO NEGRO.,"PRIMARIA MULTIGRADO,PREESCOLAR COMUNITARIO MULTINIVEL","14,10",2,PRIMARIA,Boaco,Boaco,11,100
ORLANDO PINEDA,4434,12.58124600,-85.40137000,MIRAFLOR.,PRIMARIA MULTIGRADO,14,2,PRIMARIA,Boaco,Boaco,11,100
GERMAN POMARES ORDOÑEZ,4435,12.67481100,-85.51298900,CARRETERA A RIO BLANCO.,PRIMARIA MULTIGRADO,14,2,PRIMARIA,Boaco,Boaco,11,100
FLAVIO CESAR TIJERINO,4436,12.52007000,-85.44471000,DE LA IGLESIA DE DIOS 300MTS AL OESTE.,"PRIMARIA MULTIGRADO,PREESCOLAR COMUNITARIO MULTINIVEL","14,10",2,PRIMARIA,Boaco,Boaco,11,100
FELIPE BORGE,4437,12.58401400,-85.32793300,EL JOBILLO.,PRIMARIA MULTIGRADO,14,2,PRIMARIA,Boaco,Boaco,11,100
SAN VICENTE NO.3,4438,12.53743000,-85.47248000,SECTOR SAN VICENTE.,"PRIMARIA MULTIGRADO,PREESCOLAR COMUNITARIO MULTINIVEL","14,10",2,PRIMARIA,Boaco,Boaco,11,100
ALCIDES MIRANDA,4439,12.64148000,-85.55580000,WIWAS NO.1.,"PREESCOLAR COMUNITARIO MULTINIVEL,PRIMARIA MULTIGRADO","10,14",2,PRIMARIA,Boaco,Boaco,11,100
GEORGINO ANDRADE,4440,12.62185000,-85.51931000,CARRETERA A SAN JOSE DE LA VEGA.,"PRIMARIA MULTIGRADO,PREESCOLAR COMUNITARIO MULTINIVEL","14,10",2,PRIMARIA,Boaco,Boaco,11,100
SAN JOSE OBRERO,4441,12.38782000,-85.60007000,EL CACAO.,"PRIMARIA MULTIGRADO,PREESCOLAR COMUNITARIO MULTINIVEL","14,10",2,PRIMARIA,Boaco,Boaco,11,100
AUGUSTO C. SANDINO,4442,12.58917000,-85.51788000,DE LA ESC. BASE 8KMS CARRETERA  RIO NEGRO.,"PREESCOLAR COMUNITARIO MULTINIVEL,PRIMARIA MULTIGRADO","10,14",2,PRIMARIA,Boaco,Boaco,11,100
PROF. JULIO CESAR SANDOVAL,4443,12.62540900,-85.42327600,SANTA FE.,"PRIMARIA MULTIGRADO,PREESCOLAR COMUNITARIO MULTINIVEL","14,10",2,PRIMARIA,Boaco,Boaco,11,100
CENTRO ESCOLAR SAN PEDRO DE SACAL,4444,12.53966100,-85.52136000,.,"PRIMARIA MULTIGRADO,PREESCOLAR COMUNITARIO MULTINIVEL","14,10",2,PRIMARIA,Boaco,Boaco,11,100
PREESCOLAR EL SOCORRO,4445,12.48950000,-85.67996000,ANTIGUA FINCA DE FCO.MARTINEZ 200MTS AL NORTE.,"PRIMARIA MULTIGRADO,PREESCOLAR COMUNITARIO MULTINIVEL","14,10",2,PRIMARIA,Boaco,Boaco,11,100
PREESCOLAR ANGELITA SOBALVARRO MORENO,4446,12.46720000,-85.66110000,CONTIGUO A L A ESCUELA ESPECIAL.,PREESCOLAR FORMAL,2,,,Boaco,Boaco,11,100
PREESCOLAR LAS NUBES,4447,12.58506500,-85.49876300,FINCA CHAYOTEPE 3KM AL OESTE.,"PREESCOLAR COMUNITARIO,PRIMARIA MULTIGRADO","1,14",2,PRIMARIA,Boaco,Boaco,11,100
CENTRO EDUCATIVO PRIVADO LA PROVIDENCIA,4448,12.49025700,-85.65160600,CONTIGUO A LA PARROQUIA JUAN PABLO II.,"PRIMARIA REGULAR,PREESCOLAR FORMAL,SECUNDARIA REGULAR","3,2,5","2,3","PRIMARIA,SECUNDARIA",Boaco,Boaco,11,100
CENTRO ESCOLAR SAN JUAN BOSCO.,4459,12.40467200,-85.56941300,CONTIGUO A DONDE FUE LA COOP. DOUGLAS DUARTES.,PRIMARIA MULTIGRADO,14,2,PRIMARIA,Boaco,Boaco,11,100
ESCUELA LODO NEGRO,4460,12.40361200,-85.58986100,LODO NEGRO.,"EBA,PRIMARIA MULTIGRADO,PREESCOLAR COMUNITARIO MULTINIVEL","102,14,10",2,PRIMARIA,Boaco,Boaco,11,100
CENTRO ESCOLAR JULIANA LÒPEZ PÉREZ.,4461,12.42794700,-85.55420000,FINCA DE RITO SANCHEZ.,"EBA,PREESCOLAR COMUNITARIO MULTINIVEL,PRIMARIA MULTIGRADO,Primaria Comunitaria JYA","102,10,14,65","2,2","PRIMARIA,PRIMARIA",Boaco,Boaco,11,100
CENTRO ESCOLAR SAN RAFAEL.,4464,12.46111500,-85.49987000,FINCA DE PAYO MOLINA.,"EBA,PRIMARIA MULTIGRADO","102,14",2,PRIMARIA,Boaco,Boaco,11,100
CENTRO ESCOLAR ESPERANZA SEQUEIRA.,4466,12.49020000,-85.47348000,FINCA DE NERIS CERDA.,PRIMARIA MULTIGRADO,14,2,PRIMARIA,Boaco,Boaco,11,100
CENTRO ESCOLAR NUESTRA SEÑORA DE GUADALUPE.,4467,12.47960000,-85.43071000,CONTIGUO A LA FINCA DE JOSE HURTADO.,"PREESCOLAR COMUNITARIO MULTINIVEL,PRIMARIA MULTIGRADO","10,14",2,PRIMARIA,Boaco,Boaco,11,100
ESCUELA RUBEN DARIO,4489,12.61038300,-85.28503600,FINCA SAN PATRICIO.,"EBA,IV CICLO,PRIMARIA MULTIGRADO,PREESCOLAR COMUNITARIO MULTINIVEL","102,109,14,10",2,PRIMARIA,Boaco,Boaco,11,100
ESCUELA ENMANUEL MONGALO,4512,12.57750000,-85.30249800,FINCA NIDO DE AGUILA.,"PRIMARIA MULTIGRADO,PREESCOLAR COMUNITARIO MULTINIVEL","14,10",2,PRIMARIA,Boaco,Boaco,11,100
CENTRO ESCOLAR SAN ISIDRO,4526,12.50597000,-85.44109000,COMARCA SALGADO Nº 2.,"PREESCOLAR COMUNITARIO MULTINIVEL,PRIMARIA MULTIGRADO","10,14",2,PRIMARIA,Boaco,Boaco,11,100
CENTRO ESCOLAR AGUSTINA MIRANDA DE QUEZADA,4449,12.38244000,-85.51794000,C/SALUD 4 C. AL OESTE.,"PREESCOLAR FORMAL MULTINIVEL,PRIMARIA REGULAR,PRIM. MULTIGRADO EN EDUC. ESPECIAL","11,3,61",2,PRIMARIA,Boaco,Camoapa,11,101
JARDÍN INFANTIL BAMBI,4450,12.38340000,-85.51050000,BAMBI.,"PREESCOLAR FORMAL MULTINIVEL,PRIMARIA REGULAR","11,3",2,PRIMARIA,Boaco,Camoapa,11,101
INSTITUTO NACIONAL DE CAMOAPA MANUEL SALVADOR GUADAMUZ GONZALEZ,4451,12.37820000,-85.51403000,SALIDA A COMALAPA.,"SECUNDARIA REGULAR,SECUNDARIA POR ENCUENTRO","5,13","3,3","SECUNDARIA,SECUNDARIA",Boaco,Camoapa,11,101
COLEGIO SAN FRANCISCO DE ASIS,4452,12.38210000,-85.51050000,FTE. A FARMACIA EL CARMEN.,"SECUNDARIA REGULAR,PRIMARIA REGULAR,PREESCOLAR FORMAL MULTINIVEL,SECUNDARIA POR ENCUENTRO","5,3,11,13","3,2,3","SECUNDARIA,PRIMARIA,SECUNDARIA",Boaco,Camoapa,11,101
CENTRO ESCOLAR JUAN MARIA DUARTE F.,4453,12.38315000,-85.50874000,PARQUE 3 C. AL ESTE 1½ AL SUR JUAN MARIA DUARTE.,"PREESCOLAR FORMAL MULTINIVEL,PRIMARIA REGULAR,PRIM. MULTIGRADO EN EDUC. ESPECIAL","11,3,61",2,PRIMARIA,Boaco,Camoapa,11,101
ESCUELA FRANCISCO PICADO.,4457,12.38660000,-85.53922000,COMARCA MOMBACHO.,"IV CICLO,PREESCOLAR COMUNITARIO MULTINIVEL,III CICLO,PRIMARIA MULTIGRADO","109,10,107,14",2,PRIMARIA,Boaco,Camoapa,11,101
CENTRO ESCOLAR JOSEFA TOLEDO DE AGUERRI.,4458,12.42034800,-85.52575300,PIEDRA SEMBRADA.,"PREESCOLAR COMUNITARIO MULTINIVEL,PRIMARIA MULTIGRADO","10,14",2,PRIMARIA,Boaco,Camoapa,11,101
CENTRO ESCOLAR SIMÒN BOLIVAR.,4462,12.51025000,-85.39902000,COMUNIDAD YALGUA.,"PRIMARIA MULTIGRADO,PREESCOLAR COMUNITARIO MULTINIVEL,EBA","14,10,102",2,PRIMARIA,Boaco,Camoapa,11,101
CENTRO ESCOLAR JOSÉ MARTÍ,4463,12.45667000,-85.46424000,COMUNIDAD YALGUA.,"PREESCOLAR COMUNITARIO MULTINIVEL,PRIMARIA MULTIGRADO","10,14",2,PRIMARIA,Boaco,Camoapa,11,101
ESCUELA CAMILO ORTEGA.,4465,12.53405000,-85.39195000,FTE. A LA FINCA DE JOSE MURILLO.,"PREESCOLAR COMUNITARIO MULTINIVEL,PRIMARIA MULTIGRADO","10,14",2,PRIMARIA,Boaco,Camoapa,11,101
ESCUELA LAS TRINCHERAS.,4468,12.43304100,-85.44982200,10 KMS. CARRETERA A LAS LAJAS.,"SECUNDARIA EN EL CAMPO,PREESCOLAR COMUNITARIO MULTINIVEL,PRIMARIA MULTIGRADO","30,10,14","3,2","SECUNDARIA,PRIMARIA",Boaco,Camoapa,11,101
CENTRO ESCOLAR MADRE TERESA DE CALCUTA.,4469,12.36430000,-85.52044000,LAGUNA NEGRO.,"PRIMARIA MULTIGRADO,PREESCOLAR COMUNITARIO MULTINIVEL","14,10",2,PRIMARIA,Boaco,Camoapa,11,101
CENTRO ESCOLAR SILVIA SUAREZ QUINTANA.,4470,12.35813000,-85.49010000,COMARCA SAN ISIDRO.,"PREESCOLAR COMUNITARIO MULTINIVEL,PRIMARIA MULTIGRADO","10,14",2,PRIMARIA,Boaco,Camoapa,11,101
CENTRO ESCOLAR RIGOBERTO CABEZA..,4471,12.37301700,-85.48077800,COMARCA EL AGUACATE.,"PRIMARIA MULTIGRADO,PREESCOLAR COMUNITARIO MULTINIVEL","14,10",2,PRIMARIA,Boaco,Camoapa,11,101
ESCUELA CATALUÑA (SALINAS),4472,12.34876100,-85.45172000,COMARCA SALINAS.,"SECUNDARIA EN EL CAMPO,PREESCOLAR COMUNITARIO MULTINIVEL,EBA,Primaria Comunitaria JYA,PRIMARIA MULTIGRADO","30,10,102,65,14","3,2,2","SECUNDARIA,PRIMARIA,PRIMARIA",Boaco,Camoapa,11,101
CENTRO ESCOLAR BENITO SÁNDIGO ARAUZ.,4473,12.36952400,-85.44496100,COMARCA TESORO.,"PRIMARIA MULTIGRADO,SECUNDARIA EN EL CAMPO,PREESCOLAR COMUNITARIO MULTINIVEL","14,30,10","2,3","PRIMARIA,SECUNDARIA",Boaco,Camoapa,11,101
CENTRO ESCOLAR CACIQUE TAISIGUE.,4474,12.38564900,-85.37793600,CACIQUE TAISIGUA.,"PRIMARIA MULTIGRADO,PREESCOLAR COMUNITARIO MULTINIVEL","14,10",2,PRIMARIA,Boaco,Camoapa,11,101
CENTRO ESCOLAR CRISTO REY.,4475,12.48484300,-85.34979500,CRISTO REY CARRETERA CAMP. LA EMBAJADA KM. 25.,"EBA,PREESCOLAR COMUNITARIO MULTINIVEL,PRIMARIA MULTIGRADO,Primaria Comunitaria JYA","102,10,14,65","2,2","PRIMARIA,PRIMARIA",Boaco,Camoapa,11,101
CENTRO ESCOLAR ALEXIS ARGUELLO.,4476,12.46401600,-85.33519100,FTE. AL CENTRO DE SALUD.,"EBA,SECUNDARIA POR ENCUENTRO,PREESCOLAR COMUNITARIO MULTINIVEL,PRIMARIA MULTIGRADO","102,13,10,14","3,2","SECUNDARIA,PRIMARIA",Boaco,Camoapa,11,101
ESCUELA SALOMÒN DE LA SELVA.,4478,12.43343000,-85.37742000,15 KMS. CARRETERA CAMOAPA LA CALAMIDAD.,"PRIMARIA MULTIGRADO,PREESCOLAR COMUNITARIO MULTINIVEL","14,10",2,PRIMARIA,Boaco,Camoapa,11,101
ESCUELA SAN PEDRO,4479,12.54587400,-85.13521300,FINCA EL DESCANSO.,"EBA,PREESCOLAR COMUNITARIO MULTINIVEL,PRIMARIA MULTIGRADO,Primaria Comunitaria JYA","102,10,14,65","2,2","PRIMARIA,PRIMARIA",Boaco,Camoapa,11,101
CENTRO ESCOLAR PRIMERO DE MAYO.,4480,12.56812000,-85.17587000,FINCA LOS CERRITOS.,PRIMARIA MULTIGRADO,14,2,PRIMARIA,Boaco,Camoapa,11,101
CENTRO ESCOLAR SAN ANTONIO.,4481,12.74897500,-85.10000800,SAN ANTONIO.,"EBA,PREESCOLAR COMUNITARIO MULTINIVEL,PRIMARIA MULTIGRADO","102,10,14",2,PRIMARIA,Boaco,Camoapa,11,101
ESCUELA INMACULADA CONCEPCION,4482,12.58995000,-85.15092000,FINCA LA MEDALLA.,"PRIMARIA MULTIGRADO,PREESCOLAR COMUNITARIO MULTINIVEL,III CICLO,Primaria Comunitaria JYA","14,10,107,65","2,2","PRIMARIA,PRIMARIA",Boaco,Camoapa,11,101
CENTRO ESCOLAR JOSÉ DE LA CRUZ MENA.,4483,12.61173700,-85.21423500,COMARCA SAN JOSE DE MURRA.,"PREESCOLAR COMUNITARIO MULTINIVEL,EBA,SECUNDARIA POR ENCUENTRO,PRIMARIA MULTIGRADO","10,102,13,14","3,2","SECUNDARIA,PRIMARIA",Boaco,Camoapa,11,101
ESCUELA PEDRO JOAQUIN CHAMORRO,4484,12.54372000,-85.23990700,FINCA OCTAVIO GUILLEN EL COROZO.,"PREESCOLAR COMUNITARIO MULTINIVEL,EBA,PRIMARIA MULTIGRADO","10,102,14",2,PRIMARIA,Boaco,Camoapa,11,101
ESCUELA REPUBLICA DE VENEZUELA,4485,12.55548000,-85.19485000,FINCA LA ESPERANZA.,PRIMARIA MULTIGRADO,14,2,PRIMARIA,Boaco,Camoapa,11,101
ESCUELA REPUBLICA DE COSTA RICA.,4486,12.61546000,-85.04810000,COMARCA MONTES VERDES.,"PREESCOLAR COMUNITARIO MULTINIVEL,PRIMARIA MULTIGRADO","10,14",2,PRIMARIA,Boaco,Camoapa,11,101
ESCUELA REPUBLICA DE ESPAÑA,4487,12.67320000,-85.03076000,TIPILMA PLATANAL NORTE.,"PREESCOLAR COMUNITARIO MULTINIVEL,PRIMARIA MULTIGRADO","10,14",2,PRIMARIA,Boaco,Camoapa,11,101
CENTRO ESCOLAR REPUBLICA DE MEXICO.,4488,12.42306000,-85.41865000,COMARCA LA LAGARTERA.,"PRIMARIA MULTIGRADO,PREESCOLAR COMUNITARIO MULTINIVEL","14,10",2,PRIMARIA,Boaco,Camoapa,11,101
CENTRO ESCOLAR PRESBITERO HIGINIO FLETES.,4490,12.41236000,-85.46106000,COMARCA ZARRIGO.,"PREESCOLAR COMUNITARIO MULTINIVEL,PRIMARIA MULTIGRADO","10,14",2,PRIMARIA,Boaco,Camoapa,11,101
CENTRO ESCOLAR 19 DE JULIO,4491,12.67689500,-85.10658400,PLATANAR SUR.,"EBA,SECUNDARIA EN EL CAMPO,PREESCOLAR COMUNITARIO MULTINIVEL,PRIMARIA MULTIGRADO","102,30,10,14","3,2","SECUNDARIA,PRIMARIA",Boaco,Camoapa,11,101
CENTRO ESCOLAR PROF: OFELIA CERRATO.,4492,12.36077000,-85.55791000,COMARCA TONILAPA.,"PRIMARIA MULTIGRADO,PREESCOLAR COMUNITARIO","14,1",2,PRIMARIA,Boaco,Camoapa,11,101
CENTRO ESCOLAR PROF: ANDREA GUEVARA.,4493,12.62344600,-85.13608400,MONTES VERDES.,"PREESCOLAR COMUNITARIO MULTINIVEL,EBA,Primaria Comunitaria JYA,PRIMARIA MULTIGRADO","10,102,65,14","2,2","PRIMARIA,PRIMARIA",Boaco,Camoapa,11,101
CENTRO ESCOLAR TINO LÒPEZ GUERRA.,4494,12.63481000,-84.97135000,COMARCA GUAYABO.,"PREESCOLAR COMUNITARIO MULTINIVEL,III CICLO,PRIMARIA MULTIGRADO","10,107,14",2,PRIMARIA,Boaco,Camoapa,11,101
ESCUELA SAGRADA FAMILIA,4495,12.44891900,-85.26448100,FINCA LAS MARIAS.,"PRIMARIA MULTIGRADO,PREESCOLAR COMUNITARIO MULTINIVEL","14,10",2,PRIMARIA,Boaco,Camoapa,11,101
ESCUELA CRISTOBAL COLON,4496,12.64583300,-85.07388900,MONTE VERDE.,"EBA,PRIMARIA MULTIGRADO,PREESCOLAR COMUNITARIO MULTINIVEL","102,14,10",2,PRIMARIA,Boaco,Camoapa,11,101
CENTRO ESCOLAR 12 DE OCTUBRE.,4497,12.59452700,-85.07710400,MONTES VERDES # 2.,"PRIMARIA MULTIGRADO,PREESCOLAR COMUNITARIO MULTINIVEL,EBA","14,10,102",2,PRIMARIA,Boaco,Camoapa,11,101
ESCUELA SANTA RITA.,4498,12.37588000,-85.58472000,MOMBACHITO # 2.,"PRIMARIA MULTIGRADO,III CICLO,EBA,PREESCOLAR COMUNITARIO MULTINIVEL","14,107,102,10",2,PRIMARIA,Boaco,Camoapa,11,101
ESCUELA SAN JOSÉ,4499,12.38810000,-85.27428300,FINCA LA CEIBA.,"PRIMARIA MULTIGRADO,PREESCOLAR COMUNITARIO MULTINIVEL","14,10",2,PRIMARIA,Boaco,Camoapa,11,101
CENTRO ESCOLAR 12 DE SEPTIEMBRE.,4500,12.50565000,-85.27856000,PANAMERICA.,"PREESCOLAR COMUNITARIO MULTINIVEL,PRIMARIA MULTIGRADO,Primaria Comunitaria JYA","10,14,65","2,2","PRIMARIA,PRIMARIA",Boaco,Camoapa,11,101
CENTRO ESCOLAR HERNAN ROBLETO HUETE.,4501,12.52318200,-85.18891800,FINCA LA MONEDA.,"PRIMARIA MULTIGRADO,EBA,PREESCOLAR COMUNITARIO MULTINIVEL","14,102,10",2,PRIMARIA,Boaco,Camoapa,11,101
ESCUELA SAN MIGUEL ARCANGEL.,4502,12.66081800,-85.11635300,MONTE VERDE.,"PREESCOLAR COMUNITARIO MULTINIVEL,III CICLO,EBA,PRIMARIA MULTIGRADO","10,107,102,14",2,PRIMARIA,Boaco,Camoapa,11,101
ESCUELA JOSE DOLORES ESTRADA,4503,12.46618000,-85.17612700,FINCA LOS CHOSMES.,"III CICLO,PREESCOLAR COMUNITARIO MULTINIVEL,IV CICLO,PRIMARIA MULTIGRADO,EBA","107,10,109,14,102",2,PRIMARIA,Boaco,Camoapa,11,101
ESCUELA SAN FRANCISCO ORIENTAL,4504,12.52511600,-85.15524400,FINCA SAN JOSE.,"PRIMARIA MULTIGRADO,EBA,PREESCOLAR COMUNITARIO MULTINIVEL","14,102,10",2,PRIMARIA,Boaco,Camoapa,11,101
ESCUELA CACIQUE YARRINCE,4505,12.42987000,-85.34244000,BIJAGUA.,"III CICLO,PREESCOLAR COMUNITARIO MULTINIVEL,PRIMARIA MULTIGRADO","107,10,14",2,PRIMARIA,Boaco,Camoapa,11,101
ESCUELA AMORES DEL SOL,4506,12.43929800,-85.21130100,AMORES DEL SOL.,"PREESCOLAR COMUNITARIO MULTINIVEL,EBA,PRIMARIA MULTIGRADO","10,102,14",2,PRIMARIA,Boaco,Camoapa,11,101
CENTRO ESCOLAR MARIA AUXILIADORA.,4507,12.50802800,-85.09492600,FINCA SAN JUAN.,"PRIMARIA MULTIGRADO,IV CICLO,III CICLO,EBA,PREESCOLAR COMUNITARIO MULTINIVEL","14,109,107,102,10",2,PRIMARIA,Boaco,Camoapa,11,101
ESCUELA FIDEL COLOMA,4508,12.68442600,-85.14394000,PLATANAR SUR.,"PREESCOLAR COMUNITARIO MULTINIVEL,PRIMARIA MULTIGRADO","10,14",2,PRIMARIA,Boaco,Camoapa,11,101
ESCUELA SAN JORGE,4510,12.66393100,-85.13564800,PLATANAR SUR.,"PRIMARIA MULTIGRADO,PREESCOLAR COMUNITARIO MULTINIVEL","14,10",2,PRIMARIA,Boaco,Camoapa,11,101
ESCUELA LA UNION,4511,12.53346200,-85.34447200,ENTRADA A SANTA ELENA.,"III CICLO,PREESCOLAR COMUNITARIO,PRIMARIA MULTIGRADO","107,1,14",2,PRIMARIA,Boaco,Camoapa,11,101
CENTRO ESCOLAR UNIÒN CENTROAMERICANA.,4513,12.52318200,-85.18891800,FINCA MARIA AUXILIADORA.,"PREESCOLAR COMUNITARIO MULTINIVEL,PRIMARIA MULTIGRADO","10,14",2,PRIMARIA,Boaco,Camoapa,11,101
ESCUELA SAN ANDRES,4514,12.49059600,-85.13678800,FINCA LA ESPERANZA - CASERIO LOS LOPEZ.,"PRIMARIA MULTIGRADO,PREESCOLAR COMUNITARIO MULTINIVEL","14,10",2,PRIMARIA,Boaco,Camoapa,11,101
ESCUELA MIGUEL LARREYNAGA,4515,12.71326900,-85.09063600,PLATANAR NORTE.,"EBA,PREESCOLAR COMUNITARIO MULTINIVEL,PRIMARIA MULTIGRADO","102,10,14",2,PRIMARIA,Boaco,Camoapa,11,101
COLEGIO CRISTIANO ANTORCHITA,4517,12.38160000,-85.51400000,BARRIO GASPAR GARCIA.,"SECUNDARIA REGULAR,PRIMARIA REGULAR,PREESCOLAR FORMAL MULTINIVEL","5,3,11","3,2","SECUNDARIA,PRIMARIA",Boaco,Camoapa,11,101
CENTRO ESCOLAR LAS MARAVILLAS DE CAMOAPA.,4518,12.48840000,-85.31211000,FTE. HACIENDA DE LUIS FELIPE.,PRIMARIA MULTIGRADO,14,2,PRIMARIA,Boaco,Camoapa,11,101
CENTRO ESCOLAR JUSTO SANTOS.,4519,12.56878000,-85.21313000,FINCA LUCITANIA.,"PRIMARIA MULTIGRADO,PREESCOLAR COMUNITARIO MULTINIVEL","14,10",2,PRIMARIA,Boaco,Camoapa,11,101
CENTRO EDUCATIVO PUBLICO PROFESORA VIOLETA CAMPOS,4520,12.38719800,-85.51367600,BARRIO RAMON OBANDO..,PREESCOLAR COMUNITARIO MULTINIVEL,10,,,Boaco,Camoapa,11,101
ROBERTO CLEMENTE,4521,12.63955000,-85.00171000,COMARCA TIPILMA FINCA DE DOÑA FLORENTINA BARCIA FRENTE A LA CASA.,"PRIMARIA MULTIGRADO,IV CICLO,PREESCOLAR COMUNITARIO MULTINIVEL,III CICLO,Primaria Comunitaria JYA","14,109,10,107,65","2,2","PRIMARIA,PRIMARIA",Boaco,Camoapa,11,101
CENTRO ESCOLAR 14 DE SEPTIEMBRE,4522,12.52113900,-85.23291000,EN FINCA DE DON RONALDO PEREZ.,"PRIMARIA MULTIGRADO,PREESCOLAR COMUNITARIO MULTINIVEL","14,10",2,PRIMARIA,Boaco,Camoapa,11,101
CENTRO ESCOLAR LAS MERCEDES,4523,12.57722200,-85.24555200,FINCA LAS MERCEDES.,"PRIMARIA MULTIGRADO,PREESCOLAR COMUNITARIO MULTINIVEL","14,10",2,PRIMARIA,Boaco,Camoapa,11,101
EL CASTILLO DE LA INMACULADA,4524,12.56846300,-85.06017900,LA INMACULADA.,"PREESCOLAR COMUNITARIO MULTINIVEL,EBA,PRIMARIA MULTIGRADO","10,102,14",2,PRIMARIA,Boaco,Camoapa,11,101
LA ESPERANZA,4525,12.42662900,-85.26463800,FINCA DON RICARDO ARAGON.,"PREESCOLAR COMUNITARIO MULTINIVEL,PRIMARIA MULTIGRADO","10,14",2,PRIMARIA,Boaco,Camoapa,11,101
CENTRO ESCOLAR TIERRA BLANCA,4527,12.45315000,-85.44692000,COMARCA TIERRA BLANCA.,"EBA,PRIMARIA MULTIGRADO","102,14",2,PRIMARIA,Boaco,Camoapa,11,101
CENTRO ESCOLAR LUXEMBURGO,4528,12.65027800,-85.09666400,COMARCA PLATANAR SUR.,"PRIMARIA MULTIGRADO,PREESCOLAR COMUNITARIO MULTINIVEL","14,10",2,PRIMARIA,Boaco,Camoapa,11,101
CENTRO ESCOLAR SAN MARCOS CCA. EL ACHIOTE,4529,12.50981000,-85.31789000,COMUNIDAD EL ACHIOTE.,"PRIMARIA MULTIGRADO,PREESCOLAR COMUNITARIO MULTINIVEL,EBA","14,10,102",2,PRIMARIA,Boaco,Camoapa,11,101
CENTRO ESCOLAR LA CHILENA,4530,12.49343200,-85.25077100,FRENTE FINCA LA CHILENA COMARCA ARENITA.,"PRIMARIA MULTIGRADO,EBA,SECUNDARIA EN EL CAMPO,PREESCOLAR COMUNITARIO MULTINIVEL","14,102,30,10","2,3","PRIMARIA,SECUNDARIA",Boaco,Camoapa,11,101
EL PARAÍSO,4531,12.47800200,-85.38203000,COSTADO NORTE FINCA EL NARANJO.,PRIMARIA MULTIGRADO,14,2,PRIMARIA,Boaco,Camoapa,11,101
CENTRO ESCOLAR VILLA PROGRESO,4532,12.44538000,-85.11996000,FINCA DE DON SANTIAGO ORTEGA.,"PRIMARIA MULTIGRADO,PREESCOLAR COMUNITARIO MULTINIVEL,EBA","14,10,102",2,PRIMARIA,Boaco,Camoapa,11,101
CENTRO ESCOLAR MATAMBA,4533,12.40975000,-85.49082000,COSTADO ESTE DE LA FINCA DE FRANCISCO GONZALEZ.,PRIMARIA MULTIGRADO,14,2,PRIMARIA,Boaco,Camoapa,11,101
CENTRO ESCOLAR SALVADORA MONCADA,4534,12.72977000,-85.05211000,FINCA DE DENIS SEQUEIRA.,"EBA,PREESCOLAR COMUNITARIO MULTINIVEL,PRIMARIA MULTIGRADO","102,10,14",2,PRIMARIA,Boaco,Camoapa,11,101
EL MADERAL,4535,12.39114000,-85.43093700,TESORERO.,"PREESCOLAR COMUNITARIO MULTINIVEL,PRIMARIA MULTIGRADO","10,14",2,PRIMARIA,Boaco,Camoapa,11,101
LA PRIMAVERA,4536,12.70670000,-85.03274000,PLATANAR NORTE.,"EBA,PREESCOLAR COMUNITARIO MULTINIVEL,PRIMARIA MULTIGRADO","102,10,14",2,PRIMARIA,Boaco,Camoapa,11,101
NIÑO DIVINO (HOJACHIGUE),4537,12.40949000,-85.29539000,HOJACHIGUE.,"PREESCOLAR COMUNITARIO MULTINIVEL,PRIMARIA MULTIGRADO","10,14",2,PRIMARIA,Boaco,Camoapa,11,101
LA UNION DEL PEDERNAL,4538,12.45835000,-85.11176000,COSTADO SUR DEL MERCADO DEL PEDERNAL.,"EBA,PREESCOLAR COMUNITARIO MULTINIVEL,PRIMARIA MULTIGRADO","102,10,14",2,PRIMARIA,Boaco,Camoapa,11,101
CENTRO DE EDUCACIÓN DE ADULTOS (CEDA),4539,12.37810000,-85.51751000,KM 114 CARRETERA HACIA MANAGUA.,"PRIMARIA ACELERADA(CEDA),IV CICLO,III CICLO","12,109,107",6,CEDA,Boaco,Camoapa,11,101
VILLA LIBERTAD,4540,12.65915000,-84.99066000,FINCA DE AURELIO SOTELO.,"EBA,PRIMARIA MULTIGRADO,IV CICLO,PREESCOLAR COMUNITARIO MULTINIVEL,III CICLO","102,14,109,10,107",2,PRIMARIA,Boaco,Camoapa,11,101
INES DE MONDRAGON,4541,12.64210000,-85.13132400,FINCA DE DON MARIO BLANDON.,"PREESCOLAR COMUNITARIO MULTINIVEL,EBA,Primaria Comunitaria JYA,PRIMARIA MULTIGRADO","10,102,65,14","2,2","PRIMARIA,PRIMARIA",Boaco,Camoapa,11,101
CARDENAL MIGUEL OBANDO Y BRAVO,4542,12.35828000,-85.43412200,FINCA DE DON POMPILIO ORTEGA.,"PRIMARIA MULTIGRADO,PREESCOLAR COMUNITARIO MULTINIVEL","14,10",2,PRIMARIA,Boaco,Camoapa,11,101
LEONEL NAVAS LÓPEZ,4543,12.38590000,-85.34546000,FINCA DEL SEÑOR LAUREANO MARTINEZ.,"PREESCOLAR COMUNITARIO MULTINIVEL,PRIMARIA MULTIGRADO","10,14",2,PRIMARIA,Boaco,Camoapa,11,101
ALFONSO ALVARADO LUGO,4544,12.40222000,-85.39574000,FINCA DE DON DAMASO LOPEZ.,PRIMARIA MULTIGRADO,14,2,PRIMARIA,Boaco,Camoapa,11,101
PABLO ANTONIO CUADRA,4545,12.38442200,-85.46397400,FINCA DE REYMUNDO TORRES.,"PRIMARIA MULTIGRADO,PREESCOLAR COMUNITARIO MULTINIVEL","14,10",2,PRIMARIA,Boaco,Camoapa,11,101
PERPETUO SOCORRO,4546,12.44488000,-85.23760000,FINCA DE JULION OJEDA LÓPEZ.,"PRIMARIA MULTIGRADO,PREESCOLAR COMUNITARIO MULTINIVEL","14,10",2,PRIMARIA,Boaco,Camoapa,11,101
SOR MARÍA ROMERO MENESES,4547,12.59901000,-85.13745000,FINCA LOS MORA DE FAUSTINO SANDOVAL.,PRIMARIA MULTIGRADO,14,2,PRIMARIA,Boaco,Camoapa,11,101
ESC. PIEDRA FINA,4548,12.51696500,-85.13608400,ESC. PIEDRA FINA CASERIO ALEMANIA.,"PRIMARIA MULTIGRADO,EBA,PREESCOLAR COMUNITARIO MULTINIVEL","14,102,10",2,PRIMARIA,Boaco,Camoapa,11,101
ESCUELA SANTA TERESA,4549,12.46953000,-85.07821000,TAWA.,"PRIMARIA MULTIGRADO,PREESCOLAR COMUNITARIO MULTINIVEL","14,10",2,PRIMARIA,Boaco,Camoapa,11,101
INSTITUTO DIVINA PROVIDENCIA,4550,12.60860000,-85.20330000,CONTIGUO A LA IGLESIA ANTIGUA.,SECUNDARIA POR ENCUENTRO,13,3,SECUNDARIA,Boaco,Camoapa,11,101
ESC SANTA RITA DEL SABALAR,4551,12.44863000,-85.16675000,CONTIGUO A FINCA DE MOISES SANDIGO.,"EBA,PREESCOLAR COMUNITARIO MULTINIVEL,PRIMARIA MULTIGRADO","102,10,14",2,PRIMARIA,Boaco,Camoapa,11,101
CENTRO ESCOLAR VIRGEN DE FATIMA,4552,12.39152900,-85.56510700,CONTIGUO A LA FINCA DE FELICIANO SANCHEZ.,"PRIMARIA MULTIGRADO,PREESCOLAR COMUNITARIO MULTINIVEL","14,10",2,PRIMARIA,Boaco,Camoapa,11,101
CENTRO ESCOLAR SAN RAFAEL Nº2,4553,12.44479000,-85.50694000,DE LA PRESA LA AGUADORA 2KM AL ESTE.,"PRIMARIA MULTIGRADO,PREESCOLAR COMUNITARIO MULTINIVEL","14,10",2,PRIMARIA,Boaco,Camoapa,11,101
CENTRO ESCOLAR AGUSTO CESAR SANDINO,4554,12.42030000,-85.38543000,DEL ACOPIO 500 MTS AL SUR.,"PRIMARIA MULTIGRADO,PREESCOLAR COMUNITARIO MULTINIVEL","14,10",2,PRIMARIA,Boaco,Camoapa,11,101
CENTRO ESCOLAR CONTINGENTE XXX1 ANIVERSARIO,4555,12.37812000,-85.57240000,SECTOR EL MONAL.,"PREESCOLAR COMUNITARIO MULTINIVEL,EBA,PRIMARIA MULTIGRADO","10,102,14",2,PRIMARIA,Boaco,Camoapa,11,101
CENTRO ESCOLAR RUBEN DARIO (ARENITA Nº1),4556,12.47817800,-85.23916400,FINCA ARENITA.,"PRIMARIA MULTIGRADO,PREESCOLAR COMUNITARIO MULTINIVEL,EBA","14,10,102",2,PRIMARIA,Boaco,Camoapa,11,101
CENTRO ESCOLAR RAMON ESPINOZA,4557,12.70637300,-85.13254000,FINCA SANTA RITA DE EPIFANIO LINARTE.,"PREESCOLAR COMUNITARIO MULTINIVEL,PRIMARIA MULTIGRADO,Primaria Comunitaria JYA","10,14,65","2,2","PRIMARIA,PRIMARIA",Boaco,Camoapa,11,101
CENTRO ESCOLAR ESCUELA UNION Nº2 (MASIGUE),4559,12.52020500,-85.37175400,COMARCA MASIGUE.,"PRIMARIA MULTIGRADO,PREESCOLAR COMUNITARIO MULTINIVEL","14,10",2,PRIMARIA,Boaco,Camoapa,11,101
CENTRO ESCOLAR JOSE MARTI N°1(EL ZAHINO),4560,12.55150200,-85.13776500,FINCA SAN SIMON.,"PREESCOLAR COMUNITARIO MULTINIVEL,PRIMARIA MULTIGRADO","10,14",2,PRIMARIA,Boaco,Camoapa,11,101
CENTRO ESCOLAR CRISTOBAL AVILEZ,4562,12.61733800,-85.07969900,A.FINCA TOMAS PEREZ.,"EBA,IV CICLO,PRIMARIA MULTIGRADO,PREESCOLAR COMUNITARIO MULTINIVEL,III CICLO","102,109,14,10,107",2,PRIMARIA,Boaco,Camoapa,11,101
CENTRO INFANTIL DIVINO NIÑO,4563,12.38706900,-85.51706000,HOSPITAL SAN FCO. DE ASIS 1 1/2C.AL SUR.,PRIMARIA REGULAR,3,2,PRIMARIA,Boaco,Camoapa,11,101
CAMOAPA FAITH ACADEMY,4564,12.38715100,-85.51696500,"KM.112 CARRETERA A MANAGUA,CAMOAPA BOACO.","PREESCOLAR FORMAL,PRIMARIA REGULAR","2,3",2,PRIMARIA,Boaco,Camoapa,11,101
CENTRO ESCOLAR TOMAS BORGE MARTINEZ,4565,12.38202000,-85.50343500,SECTOR LAS NUBES.,"PREESCOLAR COMUNITARIO MULTINIVEL,PRIMARIA MULTIGRADO","10,14",2,PRIMARIA,Boaco,Camoapa,11,101
EXTENSION CAMOAPA ESCUELA NORMAL CASA INMACULADA CONCEPCION,4566,12.38642200,-85.51801900,DE DISTRIBUIDORA CROVETTO 1 C. AL NORTE.,CURSOS PROFES. MEP EN SERVICIO SABATINO,57,,,Boaco,Camoapa,11,101
CENTRO ESCOLAR SAN ANTONIO,4661,12.32940000,-85.43088200,DE COMALAPA 15KM AL NOR-ESTE.,"ALFABETIZACION,PREESCOLAR COMUNITARIO MULTINIVEL,EBA,PRIMARIA MULTIGRADO","63,10,102,14","7,2","ALFABETIZACION,PRIMARIA",Boaco,Camoapa,11,101
CENTRO ESCOLAR EL ROBLAR,4664,12.34166700,-85.51390900,COMUNIDAD EL ROBLAR CARRETERA COMALAPA - COAPA.,"PREESCOLAR COMUNITARIO MULTINIVEL,PRIMARIA MULTIGRADO,ALFABETIZACION","10,14,63","2,7","PRIMARIA,ALFABETIZACION",Boaco,Camoapa,11,101
CENTRO ESCOLAR SAN JERONIMO,4675,12.33060900,-85.45890600,DE COMALAPA 8KM AL NORTE.,"EBA,PRIMARIA MULTIGRADO","102,14",2,PRIMARIA,Boaco,Camoapa,11,101
CENTRO ESCOLAR AUGUSTO C. SANDINO,4686,12.33516500,-85.46145300,DE COMALAPA 7KM AL ESTE 200 MTS AL NORTE.,"Primaria Comunitaria JYA,PREESCOLAR COMUNITARIO MULTINIVEL,PRIMARIA MULTIGRADO","65,10,14","2,2","PRIMARIA,PRIMARIA",Boaco,Camoapa,11,101
JOSE DOLORES ESTRADA,4768,12.39571700,-85.24824400,COMARCA ARENA ABAJO A 20 KM DE LA LIBERTAD.,"PRIMARIA MULTIGRADO,Primaria Comunitaria JYA,PREESCOLAR COMUNITARIO MULTINIVEL","14,65,10","2,2","PRIMARIA,PRIMARIA",Boaco,Camoapa,11,101
CENTRO ESCOLAR SANTA MARIA,4799,12.50527800,-85.03700400,70 KM AL NORESTE DE LA LIBERTAD.,"PRIMARIA MULTIGRADO,PREESCOLAR COMUNITARIO MULTINIVEL","14,10",2,PRIMARIA,Boaco,Camoapa,11,101
CENTRO ESCOLAR BENICIO BAEZ,4804,12.54814500,-85.02681500,TAWA 95 KM DE LA LIBERTAD.,"PREESCOLAR COMUNITARIO MULTINIVEL,PRIMARIA MULTIGRADO","10,14",2,PRIMARIA,Boaco,Camoapa,11,101
CENTRO ESCOLAR SAN ISIDRO,8889,12.77146000,-85.11564000,BOCANA DE PAIWAS 4 KM AL SUR.,"PRIMARIA MULTIGRADO,PREESCOLAR COMUNITARIO MULTINIVEL","14,10",2,PRIMARIA,Boaco,Camoapa,11,101
CENTRO ESCOLAR HERMANAS ALVAREZ AGUILAR,4197,12.59745700,-85.76307100,DEL PARQUE 1 C AL ESTE.,"PREESCOLAR FORMAL,IV CICLO,PRIMARIA REGULAR,III CICLO,PREESCOLAR COMUNITARIO","2,109,3,107,1",2,PRIMARIA,Boaco,San José de los Remates,11,97
INSTITUTO NACIONAL NAVAS ALVARADO,4198,12.59532900,-85.75910000,CENTRO DE SALUD 200 VRS. AL SUR.,SECUNDARIA REGULAR,5,3,SECUNDARIA,Boaco,San José de los Remates,11,97
EL CERRO,4199,12.61506000,-85.77956000,COMARCA EL CERRO.,PRIMARIA MULTIGRADO,14,2,PRIMARIA,Boaco,San José de los Remates,11,97
PROF: VICTORIA ALVAREZ,4200,12.60760000,-85.85485000,EMPALME  LA CAÑADA  KM 1 ½OESTE.,PRIMARIA MULTIGRADO,14,2,PRIMARIA,Boaco,San José de los Remates,11,97
LA CAÑADA,4201,12.63513000,-85.81274000,EMPALME  LA CAÑA 1½ KM OESTE.,PRIMARIA MULTIGRADO,14,2,PRIMARIA,Boaco,San José de los Remates,11,97
MALACATOYA # 1,4202,12.61197000,-85.71699600,COMARCA MALACATOYA.,PRIMARIA MULTIGRADO,14,2,PRIMARIA,Boaco,San José de los Remates,11,97
EL COROZO,4203,12.56182000,-85.76547000,COMARCA EL COROZO.,PRIMARIA MULTIGRADO,14,2,PRIMARIA,Boaco,San José de los Remates,11,97
CUMAICA SUR,4204,12.63797900,-85.67548400,COMARCA CUMAYCA SUR.,"PREESCOLAR COMUNITARIO MULTINIVEL,PREESCOLAR COMUNITARIO,III CICLO,IV CICLO,PRIMARIA REGULAR","10,1,107,109,3",2,PRIMARIA,Boaco,San José de los Remates,11,97
RUBEN DARIO.,4205,12.54480000,-85.89931000,COMARCA TIERRA BLANCA.,PRIMARIA MULTIGRADO,14,2,PRIMARIA,Boaco,San José de los Remates,11,97
CENTRO ESCOLAR ALVAREZ HUETE.,4206,12.56578000,-85.91537000,COMARCA EL COYOL.,"SECUNDARIA POR ENCUENTRO,PREESCOLAR COMUNITARIO MULTINIVEL,PRIMARIA MULTIGRADO","13,10,14","3,2","SECUNDARIA,PRIMARIA",Boaco,San José de los Remates,11,97
CENTRO ESCOLAR LARREYNAGA(JULIO BUITRAGO),4207,12.55965700,-85.88287000,COMARCA BAJOS DE TOMATOYA.,"PREESCOLAR COMUNITARIO MULTINIVEL,PRIMARIA MULTIGRADO","10,14",2,PRIMARIA,Boaco,San José de los Remates,11,97
CENTRO ESCOLAR SAN BARTOLO.,4208,12.59788000,-85.79646000,COMARCA SAN BARTOLO.,"PRIMARIA MULTIGRADO,PREESCOLAR COMUNITARIO MULTINIVEL","14,10",2,PRIMARIA,Boaco,San José de los Remates,11,97
CENTRO ESCOLAR RAFAELA HERRERA,4209,12.55937000,-85.84438000,COMARCA NACASCOLO.,"PRIMARIA MULTIGRADO,PREESCOLAR COMUNITARIO MULTINIVEL","14,10",2,PRIMARIA,Boaco,San José de los Remates,11,97
EL RELOJ,4210,12.59672800,-85.68329900,COMARCA EL RELOJ.,PRIMARIA MULTIGRADO,14,2,PRIMARIA,Boaco,San José de los Remates,11,97
CUMAYKA NORTE,4211,12.65068300,-85.69514200,COMARCA CUMAYCA NORTE.,"PREESCOLAR COMUNITARIO MULTINIVEL,PRIMARIA MULTIGRADO","10,14",2,PRIMARIA,Boaco,San José de los Remates,11,97
MALACATOYA # 2,4212,12.59825900,-85.71417600,COMARCA MALACATOYA.,"PRIMARIA MULTIGRADO,PREESCOLAR COMUNITARIO MULTINIVEL","14,10",2,PRIMARIA,Boaco,San José de los Remates,11,97
CERRO ALEGRE (GERMAN POMAREZ),4213,12.62662200,-85.71676000,COMARCA CERRO ALEGRE.,PRIMARIA MULTIGRADO,14,2,PRIMARIA,Boaco,San José de los Remates,11,97
CENTRO ESCOLAR EL SOCORRO.,4214,12.63458500,-85.72066700,COMARCA EL ROBLAR.,"PRIMARIA MULTIGRADO,PREESCOLAR COMUNITARIO MULTINIVEL","14,10",2,PRIMARIA,Boaco,San José de los Remates,11,97
CENTRO ESCOLAR ANDÉS CASTRO,4215,12.57425200,-85.74420800,COMARCA LOS TALNITES.,"PRIMARIA MULTIGRADO,PREESCOLAR COMUNITARIO MULTINIVEL","14,10",2,PRIMARIA,Boaco,San José de los Remates,11,97
LA AURORA,4217,12.64662400,-85.64502400,LA AURORA (CUMAICA SUR).,"PRIMARIA MULTIGRADO,PREESCOLAR COMUNITARIO MULTINIVEL","14,10",2,PRIMARIA,Boaco,San José de los Remates,11,97
LA VIRGEN,4218,12.61746600,-85.69825000,MALACATOYA.,PRIMARIA MULTIGRADO,14,2,PRIMARIA,Boaco,San José de los Remates,11,97
ENMANUEL MONGALO,4220,12.60643000,-85.83446000,CASAS NUEVAS.,PRIMARIA MULTIGRADO,14,2,PRIMARIA,Boaco,San José de los Remates,11,97
INSTITUTO CUMAICA SUR,4222,12.63856000,-85.67610000,DE LA ESTACION DE POLICIA 50 MTS AL ESTE.,SECUNDARIA REGULAR,5,3,SECUNDARIA,Boaco,San José de los Remates,11,97
WALTER GEORGE MOLLER,6476,12.63870000,-85.78080000,CERRO SANTA MARIA 5 KM AL SUR DE ESQUIPULA.,"PREESCOLAR COMUNITARIO MULTINIVEL,PRIMARIA MULTIGRADO","10,14",2,PRIMARIA,Boaco,San José de los Remates,11,97
TIERRA BLANCA,2358,12.27205600,-85.80232700,DEL TIMA 24 KM AL ESTE 17 KM AL NORTE.,PRIMARIA MULTIGRADO,14,2,PRIMARIA,Boaco,San Lorenzo,11,102
MANUEL DE JESUS RIVERA,4290,12.28864000,-85.77512000,35KMS AL SUR DE TEUSTEPE.,PRIMARIA MULTIGRADO,14,2,PRIMARIA,Boaco,San Lorenzo,11,102
OSCAR DANILO QUEZADA,4567,12.37014100,-85.60712200,SANTA INES.,"PREESCOLAR COMUNITARIO MULTINIVEL,PRIMARIA MULTIGRADO","10,14",2,PRIMARIA,Boaco,San Lorenzo,11,102
CENTRO ESCOLAR MIXTA SAN LORENZO,4568,12.37759000,-85.66560000,BARRIO MARÍA REYNA FTE. A LA BARRERA.,"IV CICLO,PRIMARIA REGULAR,PREESCOLAR COMUNITARIO,PREESCOLAR FORMAL,Primaria Comunitaria JYA,PRIM. REGULAR EN EDUC. ESPECIAL","109,3,1,2,65,60","2,2","PRIMARIA,PRIMARIA",Boaco,San Lorenzo,11,102
CENTRO ESCOLAR SAN FRANCISCO.,4569,12.30388000,-85.64403000,KM. 93 CARRETERA AL RAMA.,"SECUNDARIA EN EL CAMPO,EBA,PREESCOLAR FORMAL MULTINIVEL,PRIMARIA REGULAR","30,102,11,3","3,2","SECUNDARIA,PRIMARIA",Boaco,San Lorenzo,11,102
CENTRO ESCOLAR DANELIA PÁRAMO,4570,12.34415000,-85.65732000,KM. 88 CARRETERA AL RAMA.,"PRIMARIA MULTIGRADO,PREESCOLAR COMUNITARIO MULTINIVEL","14,10",2,PRIMARIA,Boaco,San Lorenzo,11,102
CENTRO ESCOLAR CARMEN GÒMEZ FLORES.,4571,12.37274000,-85.70046000,KM. 82  CARRETERA AL RAMA.,"PREESCOLAR COMUNITARIO MULTINIVEL,Primaria Comunitaria JYA,PRIMARIA REGULAR,PRIMARIA MULTIGRADO","10,65,3,14","2,2,2","PRIMARIA,PRIMARIA,PRIMARIA",Boaco,San Lorenzo,11,102
CENTRO ESCOLAR VILMA SANDOVAL.,4572,12.30639000,-85.71337000,COMUNIDAD EL CARIBE.,PRIMARIA MULTIGRADO,14,2,PRIMARIA,Boaco,San Lorenzo,11,102
ESCUELA LAS LAJAS,4573,12.31543000,-85.72810000,COMUNIDAD LAS LAJAS.,"EBA,SECUNDARIA EN EL CAMPO,PRIMARIA MULTIGRADO","102,30,14","3,2","SECUNDARIA,PRIMARIA",Boaco,San Lorenzo,11,102
ESCUELA SAN ONOFRE,4574,12.35258000,-85.69013000,84 KM. CARRETERA AL RAMA 3 KM. AL OESTE.,"EBA,SECUNDARIA EN EL CAMPO,PREESCOLAR FORMAL MULTINIVEL,PRIMARIA REGULAR,PRIMARIA MULTIGRADO","102,30,11,3,14","3,2,2","SECUNDARIA,PRIMARIA,PRIMARIA",Boaco,San Lorenzo,11,102
CENTRO ESCOLAR MIGUEL LARREYNAGA.,4575,12.28579000,-85.65164000,84 KM. CARRETERA AL RAMA 3 KM. AL OESTE.,"PRIMARIA REGULAR,PREESCOLAR FORMAL MULTINIVEL,PRIMARIA MULTIGRADO,IV CICLO,III CICLO,EBA","3,11,14,109,107,102","2,2","PRIMARIA,PRIMARIA",Boaco,San Lorenzo,11,102
CENTRO ESCOLAR DAMASO CAMPOS SÁNCHEZ.,4576,12.38909400,-85.64439700,SAN LORENZO 7 KM. AL ESTE.,"PRIMARIA MULTIGRADO,PREESCOLAR COMUNITARIO MULTINIVEL,III CICLO,EBA","14,10,107,102",2,PRIMARIA,Boaco,San Lorenzo,11,102
CENTRO ESCOLAR FLOR DE SACUANJOCHE.,4577,12.38077900,-85.63694600,C/S SAN LORENZO 4 KM. AL ESTE.,"PRIMARIA MULTIGRADO,Primaria Comunitaria JYA,III CICLO,EBA,SECUNDARIA EN EL CAMPO,PREESCOLAR COMUNITARIO MULTINIVEL","14,65,107,102,30,10","2,2,3","PRIMARIA,PRIMARIA,SECUNDARIA",Boaco,San Lorenzo,11,102
CENTRO ESCOLAR MADRE TERESA DE CALCUTA.,4578,12.36065000,-85.68712000,KM. 84 CARRETERA AL RAMA.,"PREESCOLAR COMUNITARIO MULTINIVEL,PRIMARIA MULTIGRADO","10,14",2,PRIMARIA,Boaco,San Lorenzo,11,102
ESCUELA LAS UVAS,4579,12.29056000,-85.72308000,COMUNIDAD LAS UVAS.,"PRIMARIA MULTIGRADO,PREESCOLAR COMUNITARIO MULTINIVEL,EBA","14,10,102",2,PRIMARIA,Boaco,San Lorenzo,11,102
CENTRO ESCOLAR SANTA FÉ,4580,12.32155000,-85.69081000,MONTE FRESCO.,"IV CICLO,PREESCOLAR COMUNITARIO MULTINIVEL,PRIMARIA MULTIGRADO","109,10,14",2,PRIMARIA,Boaco,San Lorenzo,11,102
ESCUELA LAS PILAS NO. 1,4581,12.33406000,-85.68257000,LAS PILAS.,"PREESCOLAR FORMAL MULTINIVEL,PRIMARIA MULTIGRADO","11,14",2,PRIMARIA,Boaco,San Lorenzo,11,102
CENTRO ESCOLAR LA ASUNCIÒN,4582,12.33357600,-85.66924000,EL CARBONAL.,"PRIMARIA MULTIGRADO,PREESCOLAR FORMAL MULTINIVEL,III CICLO,SECUNDARIA EN EL CAMPO","14,11,107,30","2,3","PRIMARIA,SECUNDARIA",Boaco,San Lorenzo,11,102
ESCUELA LOS ROBLES,4583,12.31963000,-85.63208000,LOS ROBLES.,"PREESCOLAR COMUNITARIO MULTINIVEL,PRIMARIA MULTIGRADO","10,14",2,PRIMARIA,Boaco,San Lorenzo,11,102
CENTRO ESCOLAR SANTA RITA.,4584,12.35021000,-85.63163000,QUIZALTEPE.,"PRIMARIA MULTIGRADO,PREESCOLAR COMUNITARIO MULTINIVEL","14,10",2,PRIMARIA,Boaco,San Lorenzo,11,102
CENTRO ESCOLAR CORAZÒN DE JESUS,4585,12.33939000,-85.65034000,KM. 88½ CARRETERA AL RAMA.,"PRIMARIA REGULAR,IV CICLO,III CICLO,PREESCOLAR COMUNITARIO,PREESCOLAR FORMAL MULTINIVEL","3,109,107,1,11",2,PRIMARIA,Boaco,San Lorenzo,11,102
CENTRO ESCOLAR RAFAELA HERRERA,4586,12.32335000,-85.64582000,KM. 91 CARRETERA AL RAMA.,"PREESCOLAR COMUNITARIO MULTINIVEL,PRIMARIA MULTIGRADO","10,14",2,PRIMARIA,Boaco,San Lorenzo,11,102
CENTRO ESCOLAR EL MADROÑO,4587,12.31691200,-85.66084200,LAGUNA SAN FCO..,"PRIMARIA MULTIGRADO,PREESCOLAR COMUNITARIO MULTINIVEL,III CICLO,EBA","14,10,107,102",2,PRIMARIA,Boaco,San Lorenzo,11,102
CENTRO ESCOLAR EL GUARDABARRANCO.,4588,12.31113900,-85.66409100,COMARCA EL AGUACATE.,"PREESCOLAR COMUNITARIO MULTINIVEL,EBA,PRIMARIA MULTIGRADO","10,102,14",2,PRIMARIA,Boaco,San Lorenzo,11,102
CENTRO ESCOLAR ANDRES CASTRO.,4589,12.29613400,-85.67661500,COMARCA LOS ENCUENTROS.,"III CICLO,EBA,Primaria Comunitaria JYA,PREESCOLAR COMUNITARIO MULTINIVEL,PRIMARIA MULTIGRADO","107,102,65,10,14","2,2","PRIMARIA,PRIMARIA",Boaco,San Lorenzo,11,102
CENTRO ESCOLAR AMIGOS DE LA PAZ.,4590,12.27026000,-85.69807000,COMARCA EL TIGRE.,"PREESCOLAR COMUNITARIO MULTINIVEL,PRIMARIA MULTIGRADO","10,14",2,PRIMARIA,Boaco,San Lorenzo,11,102
CENTRO ESCOLAR RUBEN DARIO,4591,12.24411200,-85.65362600,COMUNIDAD SAN ANTONIO.,"PRIMARIA MULTIGRADO,PREESCOLAR FORMAL MULTINIVEL","14,11",2,PRIMARIA,Boaco,San Lorenzo,11,102
CENTRO ESCOLAR SAN JUAN DE PABLO,4592,12.23188000,-85.76816000,COMARCA SAN JUAN DE PABLO.,"SECUNDARIA EN EL CAMPO,PREESCOLAR COMUNITARIO MULTINIVEL,PRIMARIA MULTIGRADO,Primaria Comunitaria JYA","30,10,14,65","3,2,2","SECUNDARIA,PRIMARIA,PRIMARIA",Boaco,San Lorenzo,11,102
CENTRO ESCOLAR JOSÉ DOLORES ESTRADA.,4593,12.25421000,-85.71563000,EL CHAGUITE.,"IV CICLO,PRIMARIA MULTIGRADO,PREESCOLAR COMUNITARIO MULTINIVEL,III CICLO,EBA,Primaria Comunitaria JYA","109,14,10,107,102,65","2,2","PRIMARIA,PRIMARIA",Boaco,San Lorenzo,11,102
CENTRO ESCOLAR SALOMÒN DE LA SELVA.,4594,12.23925000,-85.71306000,EL INCENDIO.,"PREESCOLAR COMUNITARIO MULTINIVEL,PRIMARIA MULTIGRADO","10,14",2,PRIMARIA,Boaco,San Lorenzo,11,102
CENTRO ESCOLAR FRANCISCO MORAZAN.,4595,12.27635000,-85.63680000,KM. 95  4 KM. AL ESTE.,"PRIMARIA MULTIGRADO,Primaria Comunitaria JYA,PREESCOLAR COMUNITARIO MULTINIVEL","14,65,10","2,2","PRIMARIA,PRIMARIA",Boaco,San Lorenzo,11,102
MILCEADES DELGADILLO TOBAL.,4596,12.15023000,-85.70211000,LAS PILAS # 2.,PRIMARIA MULTIGRADO,14,2,PRIMARIA,Boaco,San Lorenzo,11,102
CENTRO ESCOLAR CAMILO ZAPATA.,4598,12.18859300,-85.69673700,KM. 102 CARRETARA RAMA- MANAGUA 10 KM. A MALACATOYA.,"EBA,PREESCOLAR COMUNITARIO MULTINIVEL,PRIMARIA MULTIGRADO","102,10,14",2,PRIMARIA,Boaco,San Lorenzo,11,102
CENTRO ESCOLAR PEDRO ALBINO LARGAESPADA.,4599,12.17655000,-85.74194700,PAPAYAL 13 ½ KM CARRETERA A MALACATOYA.,"EBA,PRIMARIA MULTIGRADO,Primaria Comunitaria JYA,III CICLO,PREESCOLAR COMUNITARIO","102,14,65,107,1","2,2","PRIMARIA,PRIMARIA",Boaco,San Lorenzo,11,102
CENTRO ESCOLAR CONCEPCIÒN DE MARIA.,4600,12.21183200,-85.72909900,EL POCHOTAL.,"PRIMARIA MULTIGRADO,PREESCOLAR COMUNITARIO MULTINIVEL","14,10",2,PRIMARIA,Boaco,San Lorenzo,11,102
CENTRO ESCOLAR SANTA MARGARITA.,4601,12.09828000,-85.72085000,EL MENEADERO.,PRIMARIA MULTIGRADO,14,2,PRIMARIA,Boaco,San Lorenzo,11,102
CENTRO ESCOLAR SOLON GUERRERO.,4602,12.11991000,-85.68495000,MIRAMONTE.,"PRIMARIA REGULAR,PREESCOLAR FORMAL MULTINIVEL,SECUNDARIA EN EL CAMPO","3,11,30","2,3","PRIMARIA,SECUNDARIA",Boaco,San Lorenzo,11,102
CENTRO ESCOLAR SANTA RITA DE CASSIA,4603,12.20787000,-85.66955000,LA PEÑITA.,"PREESCOLAR FORMAL MULTINIVEL,SECUNDARIA REGULAR,PRIMARIA REGULAR,EBA,PREESCOLAR COMUNITARIO MULTINIVEL","11,5,3,102,10","3,2","SECUNDARIA,PRIMARIA",Boaco,San Lorenzo,11,102
CENTRO ESCOLAR NICARAO.,4604,12.19559600,-85.67390000,EL PALO.,"PREESCOLAR COMUNITARIO MULTINIVEL,EBA,PRIMARIA MULTIGRADO","10,102,14",2,PRIMARIA,Boaco,San Lorenzo,11,102
CENTRO ESCOLAR CRISTO REY.,4605,12.17014000,-85.67392000,BELEN.,"PREESCOLAR COMUNITARIO MULTINIVEL,PRIMARIA MULTIGRADO,IV CICLO,III CICLO","10,14,109,107",2,PRIMARIA,Boaco,San Lorenzo,11,102
CENTRO ESCOLAR MARIA AUXILIADORA.,4606,12.23235000,-85.65182000,EL RECREO.,"PREESCOLAR FORMAL MULTINIVEL,PRIMARIA MULTIGRADO","11,14",2,PRIMARIA,Boaco,San Lorenzo,11,102
CENTRO ESCOLAR FERNANDO CARBONELL,4607,12.35998000,-85.65214000,COMARCA EL CARRIZAL.,"III CICLO,Primaria Comunitaria JYA,EBA,PREESCOLAR COMUNITARIO MULTINIVEL,PRIMARIA MULTIGRADO","107,65,102,10,14","2,2","PRIMARIA,PRIMARIA",Boaco,San Lorenzo,11,102
INSTITUTO NACIONAL DONALD ARGUELLO BLANCO,4608,12.25122300,-85.64445500,KM. 100  CARRETERA AL RAMA.,"SECUNDARIA POR ENCUENTRO,SECUNDARIA REGULAR","13,5","3,3","SECUNDARIA,SECUNDARIA",Boaco,San Lorenzo,11,102
CENTRO ESCOLAR ENMANUEL MONGALO.,4609,12.28212000,-85.67144000,KM. 100  CARRETERA AL RAMA.,"IV CICLO,III CICLO,EBA,PREESCOLAR COMUNITARIO MULTINIVEL,PRIMARIA MULTIGRADO","109,107,102,10,14",2,PRIMARIA,Boaco,San Lorenzo,11,102
CENTRO ESCOLAR MIXTA TECOLOSTOTE,4610,12.25374000,-85.64245000,FTE. A LA IGLESIA CATOLICA.,"PREESCOLAR FORMAL MULTINIVEL,Primaria Comunitaria JYA,PRIMARIA REGULAR,PRIM. REGULAR EN EDUC. ESPECIAL,PREESCOLAR COMUNITARIO,PREESCOLAR FORMAL,PREES. FORMAL EN EDUC. ESPECIAL","11,65,3,60,1,2,59","2,2","PRIMARIA,PRIMARIA",Boaco,San Lorenzo,11,102
INSTITUTO NAC. ELBA VALDIVIA DE CORTÉZ.,4611,12.36136000,-85.66939000,KM 88 CARRETERA AL RAMA.,"SECUNDARIA REGULAR,SECUNDARIA POR ENCUENTRO","5,13","3,3","SECUNDARIA,SECUNDARIA",Boaco,San Lorenzo,11,102
SAN DIEGO (CACAO),4612,12.32916000,-85.70108000,EL CACAO.,"EBA,PRIMARIA MULTIGRADO,PREESCOLAR COMUNITARIO MULTINIVEL,III CICLO","102,14,10,107",2,PRIMARIA,Boaco,San Lorenzo,11,102
FCO. MODESTO OPORTA PÉREZ.,4613,12.10755000,-85.70819000,LA PALMA.,"EBA,PREESCOLAR COMUNITARIO MULTINIVEL,PRIMARIA MULTIGRADO","102,10,14",2,PRIMARIA,Boaco,San Lorenzo,11,102
CENTRO ESCOLAR RIGOBERTO MAYORGA PALMA.,4614,12.20691000,-85.78543000,COMARCA LA TRINIDAD.,PRIMARIA MULTIGRADO,14,2,PRIMARIA,Boaco,San Lorenzo,11,102
ESCUELA LAS CASITAS,4615,12.33860000,-85.71267200,COMARCA LA TRINIDAD.,"PRIMARIA MULTIGRADO,PREESCOLAR COMUNITARIO MULTINIVEL","14,10",2,PRIMARIA,Boaco,San Lorenzo,11,102
COLEGIO INMACULADA CONCEPCION DE MARIA,4617,12.24630000,-85.65130000,CONTIGUO A LA IGLESIA PARROQUIAL.,"PREESCOLAR FORMAL MULTINIVEL,SECUNDARIA REGULAR,PRIMARIA REGULAR","11,5,3","3,2","SECUNDARIA,PRIMARIA",Boaco,San Lorenzo,11,102
CENTRO ESCOLAR TOMASITA FLORES ORTEGA,4618,12.40784000,-85.66539000,COMARCA EL PLATANAL.,"PRIMARIA MULTIGRADO,PREESCOLAR COMUNITARIO MULTINIVEL,III CICLO","14,10,107",2,PRIMARIA,Boaco,San Lorenzo,11,102
CENTRO ESCOLAR EL RINCÓN,4619,12.25133000,-85.79796000,EL RINCÓN.,"PRIMARIA MULTIGRADO,III CICLO,EBA","14,107,102",2,PRIMARIA,Boaco,San Lorenzo,11,102
CENTRO ESCOLAR EL JABILLO,4620,12.28900000,-85.69709000,EL JABILLO.,"PREESCOLAR COMUNITARIO MULTINIVEL,PRIMARIA MULTIGRADO","10,14",2,PRIMARIA,Boaco,San Lorenzo,11,102
CENTRO ESCOLAR EL JOBO,4621,12.16841000,-85.66879000,COMUNIDAD EL JOBO.,"PRIMARIA MULTIGRADO,PREESCOLAR COMUNITARIO MULTINIVEL","14,10",2,PRIMARIA,Boaco,San Lorenzo,11,102
EL POTRERO,4622,12.25036000,-85.74911000,POTRERO.,"PRIMARIA MULTIGRADO,PREESCOLAR COMUNITARIO MULTINIVEL","14,10",2,PRIMARIA,Boaco,San Lorenzo,11,102
LA PENA (LOS COCOS),4623,12.10919000,-85.76261000,DEL HOSPITAL EL PAPAYAL 10 KMS A LA ARROCERA.,"PRIMARIA MULTIGRADO,PREESCOLAR COMUNITARIO MULTINIVEL","14,10",2,PRIMARIA,Boaco,San Lorenzo,11,102
ALFONSO CORTEZ,4624,12.24961300,-85.64817000,EL BARILLAL.,"PREESCOLAR COMUNITARIO MULTINIVEL,PRIMARIA MULTIGRADO","10,14",2,PRIMARIA,Boaco,San Lorenzo,11,102
EL CASCAJAL,4625,12.17309800,-85.76484000,COMARCA EL CASCAJAL.,"PREESCOLAR COMUNITARIO MULTINIVEL,PRIMARIA MULTIGRADO","10,14",2,PRIMARIA,Boaco,San Lorenzo,11,102
SAN NICOLÁS,4626,12.21494000,-85.70125000,SAN NICOLAS.,PRIMARIA MULTIGRADO,14,2,PRIMARIA,Boaco,San Lorenzo,11,102
CENTRO ESCOLAR PUBLICO MARIA ANTONIETA ALMANZA,4627,12.38913000,-85.68006000,DE LA DELEGACION MUNICIPAL SAN LORENZO 3 KM AL ESTE.,"PRIMARIA MULTIGRADO,PREESCOLAR COMUNITARIO MULTINIVEL","14,10",2,PRIMARIA,Boaco,San Lorenzo,11,102
CENTRO ESCOLAR MARIA ISABEL URBINA,4629,12.38694000,-85.70444000,KM 80 CARRETERA AL RAMA.,PRIMARIA MULTIGRADO,14,2,PRIMARIA,Boaco,San Lorenzo,11,102
EDELBERTO TORREZ ESPINOZA,4630,12.26807000,-85.65458000,LA PITA.,"Primaria Comunitaria JYA,PRIMARIA MULTIGRADO","65,14","2,2","PRIMARIA,PRIMARIA",Boaco,San Lorenzo,11,102
AUGUSTO CESAR SANDINO,4631,12.25708000,-85.72594000,EL BAJO.,PRIMARIA MULTIGRADO,14,2,PRIMARIA,Boaco,San Lorenzo,11,102
LA PINTADA,4632,12.36523700,-85.71006100,LA PINTADA.,PRIMARIA MULTIGRADO,14,2,PRIMARIA,Boaco,San Lorenzo,11,102
BUENOS AIRES,4633,12.33114000,-85.65285000,BUENOS AIRES.,"Primaria Comunitaria JYA,PRIMARIA MULTIGRADO,PREESCOLAR COMUNITARIO","65,14,1","2,2","PRIMARIA,PRIMARIA",Boaco,San Lorenzo,11,102
CENTRO ESCOLAR SAN JOSE,4634,12.38404000,-85.66102400,DEL C/S  1KM AL NORESTE.,"PRIMARIA MULTIGRADO,EBA","14,102",2,PRIMARIA,Boaco,San Lorenzo,11,102
CENTRO ESCOLAR CATARINA,4635,12.18484000,-85.79648000,CATARINA.,"PREESCOLAR COMUNITARIO MULTINIVEL,PRIMARIA MULTIGRADO","10,14",2,PRIMARIA,Boaco,San Lorenzo,11,102
CENTRO ESCOLAR DIVINA MISERICORDIA,4636,12.23292000,-85.64363000,KM 103 CARRETERA AL RAMA.,"PREESCOLAR COMUNITARIO MULTINIVEL,PRIMARIA MULTIGRADO","10,14",2,PRIMARIA,Boaco,San Lorenzo,11,102
CENTRO ESCOLAR EL CARRIZAL,4637,12.11183000,-85.71847000,EL CARRIZAL.,PRIMARIA MULTIGRADO,14,2,PRIMARIA,Boaco,San Lorenzo,11,102
CENTRO ESCOLAR AGUACATE LOS ORTICES,4638,12.31336000,-85.71466000,DE LA ESC. DE LAS LAJAS 3 KM AL ESTE.,PRIMARIA MULTIGRADO,14,2,PRIMARIA,Boaco,San Lorenzo,11,102
CENTRO ESCOLAR BOCA EL CONGO,4639,12.18883300,-85.72242300,FRENTE A LA ENTRADA DE LA COMUNIDAD EL POCHOTAL.,"PREESCOLAR COMUNITARIO MULTINIVEL,PRIMARIA MULTIGRADO","10,14",2,PRIMARIA,Boaco,San Lorenzo,11,102
CENTRO ESCOLAR LOS GARCIAS,4640,12.30850600,-85.72481000,DE LA IGLESIA NAZARETH 100 MTS AL NORTE.,PRIMARIA MULTIGRADO,14,2,PRIMARIA,Boaco,San Lorenzo,11,102
CENTRO ESCOLAR FRANCISCA GARCIA.,4302,12.53106500,-85.71205100,DE LA ALCALDIA 2 C. AL OESTE.,"PREESCOLAR FORMAL,PRIMARIA REGULAR","2,3",2,PRIMARIA,Boaco,Santa Lucía,11,99
MARIA ADILIA MARTINEZ,4303,12.45157900,-85.75073100,COMARCA BOAQUITO.,"PREESCOLAR FORMAL MULTINIVEL,PRIMARIA MULTIGRADO,SECUNDARIA EN EL CAMPO","11,14,30","2,3","PRIMARIA,SECUNDARIA",Boaco,Santa Lucía,11,99
CENTRO ESCOLAR JOSÉ DOLORES ESTRADA.,4304,12.50828100,-85.72372400,EL RIEGO.,"PRIMARIA MULTIGRADO,PREESCOLAR FORMAL MULTINIVEL","14,11",2,PRIMARIA,Boaco,Santa Lucía,11,99
LAS MERCEDES (CENTRO ESCOLAR DENIS MARTINEZ ),4305,12.56528000,-85.66510000,COOP. BUENOS AIRES 30 KMS. AL OESTE.,"PRIMARIA REGULAR,PRIMARIA MULTIGRADO,SECUNDARIA EN EL CAMPO,PREESCOLAR COMUNITARIO MULTINIVEL","3,14,30,10","2,2,3","PRIMARIA,PRIMARIA,SECUNDARIA",Boaco,Santa Lucía,11,99
CENTRO ESCOLAR HAYDEE BRAVO.,4306,12.54152000,-85.70198000,COMARCA LOS RIVAS.,"PRIMARIA MULTIGRADO,PREESCOLAR COMUNITARIO MULTINIVEL,III CICLO","14,10,107",2,PRIMARIA,Boaco,Santa Lucía,11,99
CENTRO ESCOLAR CLAUDIA MARIA ALVAREZ,4307,12.53171700,-85.70815800,COMARCA LOS ALVARES.,"PREESCOLAR FORMAL MULTINIVEL,PRIMARIA MULTIGRADO,III CICLO","11,14,107",2,PRIMARIA,Boaco,Santa Lucía,11,99
GABRIELA MISTRAL (VIJAGUAL NO. 1),4308,12.56764000,-85.72019000,COMARCA EL VIJAGUAL.,"PRIMARIA MULTIGRADO,PREESCOLAR COMUNITARIO MULTINIVEL","14,10",2,PRIMARIA,Boaco,Santa Lucía,11,99
CENTRO ESCOLAR RUBÉN DARIO.,4309,12.53543300,-85.71665000,INST. BEATRIZ ROCHA 500 MTS. AL NORTE.,"PREESCOLAR FORMAL MULTINIVEL,PRIMARIA REGULAR","11,3",2,PRIMARIA,Boaco,Santa Lucía,11,99
BLANCA GARCÎA,4310,12.52200300,-85.76066600,COMARCA LA CONCEPCION.,"PREESCOLAR FORMAL MULTINIVEL,PRIMARIA MULTIGRADO,III CICLO","11,14,107",2,PRIMARIA,Boaco,Santa Lucía,11,99
CENTRO ESCOLAR FIDEL ALEJANDRO CASTRO RUZ,4311,12.48641300,-85.75689000,COMARCA STO. DOMINGO.,"PREESCOLAR COMUNITARIO MULTINIVEL,PRIMARIA MULTIGRADO","10,14",2,PRIMARIA,Boaco,Santa Lucía,11,99
INSTITUTO BEATRIZ ROCHA,4312,12.53305800,-85.71463100,DEL TANQUE INAA 150 VRS. AL OESTE.,SECUNDARIA REGULAR,5,3,SECUNDARIA,Boaco,Santa Lucía,11,99
CENTRO ESCOLAR ARLEN SIU BERMUDEZ,4313,12.52544900,-85.71724300,CEMENTERIO 1 ½ C. ABAJO.,"III CICLO,IV CICLO,PRIMARIA REGULAR,PRIMARIA MULTIGRADO,PREESCOLAR FORMAL MULTINIVEL","107,109,3,14,11","2,2","PRIMARIA,PRIMARIA",Boaco,Santa Lucía,11,99
JORGE URCUYO ARGUELLO,4314,12.52609000,-85.70119000,COMARCA LOS GARCIAS.,"PREESCOLAR FORMAL,III CICLO,PRIMARIA REGULAR","2,107,3",2,PRIMARIA,Boaco,Santa Lucía,11,99
CENTRO ESCOLAR SALOMON DE LA SELVA.,4315,12.49176000,-85.69325000,COMARCA EL OREGANO.,"III CICLO,PREESCOLAR COMUNITARIO MULTINIVEL,PRIMARIA MULTIGRADO","107,10,14",2,PRIMARIA,Boaco,Santa Lucía,11,99
CENTRO EDUCATIVO DOMINGO SAVIO,4316,12.53360000,-85.71200000,C/SALUD 1 C. NORTE 1 C. ESTE.,"PREESCOLAR FORMAL MULTINIVEL,SECUNDARIA REGULAR,PRIMARIA REGULAR","11,5,3","3,2","SECUNDARIA,PRIMARIA",Boaco,Santa Lucía,11,99
CENTRO ESCOLAR DR.PEDRO JOAQUIN CHAMORRO.,4317,12.50768000,-85.67952000,COMARCA LOS MARTINEZ.,"PREESCOLAR COMUNITARIO MULTINIVEL,PRIMARIA MULTIGRADO","10,14",2,PRIMARIA,Boaco,Santa Lucía,11,99
CENTRO ESCOLAR SALOMÖN IBARRA MAYORGA.,4318,12.54577000,-85.68733000,CHISCOLAPA # 2.,"PRIMARIA MULTIGRADO,PREESCOLAR COMUNITARIO MULTINIVEL","14,10",2,PRIMARIA,Boaco,Santa Lucía,11,99
CENTRO ESCOLAR ENMANUEL MONGALO.,4319,12.54385000,-85.73007000,COMARCA EL ABRA.,"PRIMARIA MULTIGRADO,PREESCOLAR COMUNITARIO MULTINIVEL","14,10",2,PRIMARIA,Boaco,Santa Lucía,11,99
GUILLERMINA SALINAS,4321,12.52520800,-85.68754400,COMARCA LOS GARCIA SANTA LUCIA.,"PREESCOLAR COMUNITARIO MULTINIVEL,PRIMARIA MULTIGRADO","10,14",2,PRIMARIA,Boaco,Santa Lucía,11,99
CENTRO ESCOLAR ANDRES CASTRO ESTRADA,4322,12.49831400,-85.74100600,LOS RASTROJOS.,"PREESCOLAR COMUNITARIO MULTINIVEL,PRIMARIA MULTIGRADO","10,14",2,PRIMARIA,Boaco,Santa Lucía,11,99
BLANCA NAVARRETE,4323,12.56418200,-85.73194800,COMARCA EL PLAN.,"PREESCOLAR COMUNITARIO MULTINIVEL,PRIMARIA MULTIGRADO","10,14",2,PRIMARIA,Boaco,Santa Lucía,11,99
CENTRO ESCOLAR ROSA ELENA MONTOYA,4324,12.56023000,-85.69433000,COMARCA EL CEBOLLIN.,"PRIMARIA MULTIGRADO,PREESCOLAR COMUNITARIO MULTINIVEL","14,10",2,PRIMARIA,Boaco,Santa Lucía,11,99
RAFAELA HERRERA #2,4325,12.53460000,-85.69757000,SANTA LUCIA.,"PRIMARIA MULTIGRADO,PREESCOLAR COMUNITARIO MULTINIVEL","14,10",2,PRIMARIA,Boaco,Santa Lucía,11,99
ERNESTO JOSE ALVARADO,4326,12.46314600,-85.75423200,LAS PENCAS.,"PRIMARIA MULTIGRADO,PREESCOLAR COMUNITARIO MULTINIVEL","14,10",2,PRIMARIA,Boaco,Santa Lucía,11,99
EL NANCITAL,2342,12.33813000,-85.90020000,KM 53 CARRETERA AL RAMA.,PRIMARIA MULTIGRADO,14,2,PRIMARIA,Boaco,Teustepe,11,98
JOSE DOLORES ESTRADA,4219,12.54468700,-85.80801900,LOS HORCONSITOS.,"PREESCOLAR COMUNITARIO,PRIMARIA MULTIGRADO","1,14",2,PRIMARIA,Boaco,Teustepe,11,98
CRISTOBAL COLON,4221,12.55425400,-85.78310000,POZA DE LA PIEDRA.,"PREESCOLAR COMUNITARIO MULTINIVEL,PRIMARIA MULTIGRADO","10,14",2,PRIMARIA,Boaco,Teustepe,11,98
CENTRO ESCOLAR LILA INCER.,4223,12.41755000,-85.79830000,IGLESIA CATOLICA 2 ½ C. AL SUR.,"PRIMARIA REGULAR,PRIM. REGULAR EN EDUC. ESPECIAL,PREESCOLAR COMUNITARIO MULTINIVEL,PREESCOLAR FORMAL","3,60,10,2",2,PRIMARIA,Boaco,Teustepe,11,98
INSTITUTO AMISTAD,4224,12.42324600,-85.80404100,ESTADIO 150 VRS. AL OESTE.,"SECUNDARIA REGULAR,SECUNDARIA POR ENCUENTRO,IV CICLO,III CICLO","5,13,109,107","3,3","SECUNDARIA,SECUNDARIA",Boaco,Teustepe,11,98
CENTRO ESCOLAR DIRIANGEN.,4225,12.35089300,-85.88631200,TEUSTEPE 15 KM. AL CARACOL.,"PRIMARIA MULTIGRADO,PREESCOLAR COMUNITARIO MULTINIVEL","14,10",2,PRIMARIA,Boaco,Teustepe,11,98
ESCUELA SANTA RITA,4226,12.40410000,-85.72818000,8 KM. A SANTA RITA.,"PRIMARIA MULTIGRADO,PREESCOLAR COMUNITARIO MULTINIVEL","14,10",2,PRIMARIA,Boaco,Teustepe,11,98
CENTRO ESCOLAR HERMANDAD FINLANDIA,4227,12.40754000,-85.79719000,TEUSTEPE 3 KM..,"PRIMARIA MULTIGRADO,PREESCOLAR COMUNITARIO MULTINIVEL","14,10",2,PRIMARIA,Boaco,Teustepe,11,98
CENTRO ESCOLAR LUCRECIA OLIVA RODRIGUEZ.,4228,12.41766000,-85.83191000,TEUSTEPE 6 KM. A LA CRUZ # 1.,"PREESCOLAR FORMAL MULTINIVEL,PREESCOLAR FORMAL,IV CICLO,PRIMARIA REGULAR,III CICLO,SECUNDARIA EN EL CAMPO","11,2,109,3,107,30","2,3","PRIMARIA,SECUNDARIA",Boaco,Teustepe,11,98
CENTRO ESCOLAR NENA MARIA QUESADA.,4229,12.41545000,-85.75023000,FTE. A LA IGLESIA CATOLICA.,"PREESCOLAR COMUNITARIO,III CICLO,PRIMARIA A DISTANCIA EN EL CAMPO,PREESCOLAR FORMAL MULTINIVEL,PRIMARIA REGULAR","1,107,56,11,3","2,2","PRIMARIA,PRIMARIA",Boaco,Teustepe,11,98
CENTRO ESCOLAR CRUZ MARIA MONTIEL O.,4230,12.38965000,-85.73792000,ASEDADES.,"PREESCOLAR COMUNITARIO MULTINIVEL,III CICLO,PREESCOLAR FORMAL MULTINIVEL,PRIMARIA REGULAR","10,107,11,3",2,PRIMARIA,Boaco,Teustepe,11,98
CENTRO ESCOLAR INFANTIL AMERICANO.,4231,12.37878000,-85.73715000,A 8 KM. DE TEUSTEPE.,"PRIMARIA MULTIGRADO,PREESCOLAR COMUNITARIO MULTINIVEL","14,10",2,PRIMARIA,Boaco,Teustepe,11,98
CENTRO ESCOLAR NICARAO.,4232,12.42770000,-85.70761000,COMARCA SONZAPOTE # 1.,"PREESCOLAR COMUNITARIO MULTINIVEL,PRIMARIA MULTIGRADO","10,14",2,PRIMARIA,Boaco,Teustepe,11,98
CENTRO ESCOLAR BRUNILDA SÁNCHEZ.,4233,12.43727000,-85.74857000,COMARCA OJO DE AGUA.,"PRIMARIA MULTIGRADO,PREESCOLAR COMUNITARIO MULTINIVEL","14,10",2,PRIMARIA,Boaco,Teustepe,11,98
CENTRO ESCOLAR CONCEPCION ORDEÑANA ACOSTA.,4234,12.44240000,-85.70920000,KM. 80 CARRETERA A BOACO.,"PRIMARIA MULTIGRADO,III CICLO,PREESCOLAR COMUNITARIO MULTINIVEL","14,107,10",2,PRIMARIA,Boaco,Teustepe,11,98
CENTRO ESCOLAR PEDRO JOAQUIN CHAMORRO.,4235,12.32279000,-85.76598000,DE TEUSTEPE 25 KM.,"PRIMARIA MULTIGRADO,PREESCOLAR COMUNITARIO MULTINIVEL,SECUNDARIA EN EL CAMPO","14,10,30","2,3","PRIMARIA,SECUNDARIA",Boaco,Teustepe,11,98
CENTRO ESCOLAR HERMANOS NORUEGOS.,4236,12.37770000,-85.76240000,TEUSTEPE 12 KMTS. A LA CUESTA.,"PRIMARIA A DISTANCIA EN EL CAMPO,PREESCOLAR FORMAL MULTINIVEL,IV CICLO,PRIMARIA REGULAR,III CICLO","56,11,109,3,107","2,2","PRIMARIA,PRIMARIA",Boaco,Teustepe,11,98
CENTRO ESCOLAR MIGUEL OBANDO Y BRAVO.,4237,12.36260000,-85.77660000,TEUSTEPE 12 KM. A CUSIRISNE.,"PRIMARIA REGULAR,PRIMARIA MULTIGRADO,PREESCOLAR COMUNITARIO MULTINIVEL,SECUNDARIA EN EL CAMPO,III CICLO","3,14,10,30,107","2,2,3","PRIMARIA,PRIMARIA,SECUNDARIA",Boaco,Teustepe,11,98
CENTRO ESCOLAR ESTELA SÁNCHEZ SILVA.,4238,12.38928500,-85.78916200,TEUSTEPE 5 KM. AGUAS CALIENTES.,"PRIMARIA MULTIGRADO,PREESCOLAR COMUNITARIO MULTINIVEL","14,10",2,PRIMARIA,Boaco,Teustepe,11,98
CENTRO ESCOLAR ALFONZO CORTEZ.,4239,12.34701000,-85.74319000,TEUSTEPE 25 KMS.  A LA JOYA.,"III CICLO,PRIMARIA MULTIGRADO","107,14",2,PRIMARIA,Boaco,Teustepe,11,98
CENTRO ESCOLAR RAMON MONTALVAN.,4240,12.36641000,-85.79839000,DE TEUSTEPE 10 KM CARRETERA A MANAGUA.,"PRIMARIA REGULAR,III CICLO,PREESCOLAR COMUNITARIO MULTINIVEL,PREESCOLAR FORMAL MULTINIVEL","3,107,10,11",2,PRIMARIA,Boaco,Teustepe,11,98
CENTRO ESCOLAR MIGUEL ESPINOZA.,4241,12.44992000,-85.76778000,COMARCA BARRONCO ALTO.,"PRIMARIA MULTIGRADO,PREESCOLAR COMUNITARIO MULTINIVEL","14,10",2,PRIMARIA,Boaco,Teustepe,11,98
ESCUELA ENMA GARCÍA (COYUSNE),4242,12.51923000,-85.77509000,TEUSTEPE 15 KMS. AL NORTE.,"PREESCOLAR COMUNITARIO MULTINIVEL,PRIMARIA MULTIGRADO","10,14",2,PRIMARIA,Boaco,Teustepe,11,98
CENTRO ESCOLAR ANCELMA VARELA.,4243,12.44352000,-85.72305000,LAS TUNITAS.,"PREESCOLAR COMUNITARIO MULTINIVEL,PRIMARIA MULTIGRADO","10,14",2,PRIMARIA,Boaco,Teustepe,11,98
CENTRO ESCOLAR MIGUEL SÁNCHEZ.,4244,12.49595700,-85.80622600,TEUSTEPE 10 KM. AL NORTE.,"PREESCOLAR FORMAL MULTINIVEL,IV CICLO,PRIMARIA MULTIGRADO,III CICLO","11,109,14,107",2,PRIMARIA,Boaco,Teustepe,11,98
FRANCISCO JOSE OBANDO,4245,12.52440000,-85.85969000,TEUSTEPE A 18 KM..,"PREESCOLAR COMUNITARIO MULTINIVEL,PRIMARIA MULTIGRADO","10,14",2,PRIMARIA,Boaco,Teustepe,11,98
CENTRO ESCOLAR EL MADROÑO.,4246,12.54975000,-85.82109100,TEUSTEPE 10 KM. AL NORTE.,"PRIMARIA MULTIGRADO,PREESCOLAR COMUNITARIO MULTINIVEL","14,10",2,PRIMARIA,Boaco,Teustepe,11,98
ESCUELA MIGUEL LARREYNAGA (EL ESPINO),4247,12.53323000,-85.84324000,TEUSTEPE 10 KM. AL NORTE.,"PREESCOLAR COMUNITARIO MULTINIVEL,SECUNDARIA EN EL CAMPO,PRIMARIA MULTIGRADO","10,30,14","3,2","SECUNDARIA,PRIMARIA",Boaco,Teustepe,11,98
CENTRO ESCOLAR JOSÉ MATIAS DELGADO.,4248,12.50496800,-85.86069000,18 KMS. AL NORTE DE TEUSTEPE.,"PREESCOLAR COMUNITARIO MULTINIVEL,SECUNDARIA EN EL CAMPO,PRIMARIA MULTIGRADO","10,30,14","3,2","SECUNDARIA,PRIMARIA",Boaco,Teustepe,11,98
CENTRO ESCOLAR ANDRES CASTRO.,4249,12.51941000,-85.84528000,18 KMS. DE TEUSTEPE.,"PRIMARIA MULTIGRADO,PREESCOLAR COMUNITARIO MULTINIVEL","14,10",2,PRIMARIA,Boaco,Teustepe,11,98
CENTRO ESCOLAR RENE SHICK.,4250,12.49852100,-85.88620600,25 KMS. AL NORTE DE TEUSTEPE.,"PRIMARIA MULTIGRADO,PREESCOLAR COMUNITARIO MULTINIVEL","14,10",2,PRIMARIA,Boaco,Teustepe,11,98
CENTRO ESCOLAR LEONEL NAVAS LOPEZ.,4251,12.46486000,-85.85122000,DE TEUSTEPE 15 KM..,"PREESCOLAR COMUNITARIO MULTINIVEL,PRIMARIA MULTIGRADO","10,14",2,PRIMARIA,Boaco,Teustepe,11,98
CENTRO ESCOLAR SACUANJOCHE.,4252,12.51729300,-85.88420300,A 25 KMS. DE TEUSTEPE.,"PRIMARIA MULTIGRADO,PREESCOLAR COMUNITARIO MULTINIVEL,SECUNDARIA EN EL CAMPO","14,10,30","2,3","PRIMARIA,SECUNDARIA",Boaco,Teustepe,11,98
CENTRO ESCOLAR OLGA CIFUENTES.,4253,12.42586000,-85.81554000,3 KMS. DE TEUSTEPE.,"PREESCOLAR COMUNITARIO MULTINIVEL,PRIMARIA MULTIGRADO","10,14",2,PRIMARIA,Boaco,Teustepe,11,98
CENTRO ESCOLAR ALFONSO ALVARADO LUGO.,4254,12.44266200,-85.86725400,DE TEUSTEPE 10 KMS..,"IV CICLO,III CICLO,PREESCOLAR COMUNITARIO MULTINIVEL,PRIMARIA MULTIGRADO","109,107,10,14",2,PRIMARIA,Boaco,Teustepe,11,98
CENTRO ESCOLAR PUENTE DE AMISTAD DE NORTEAMERICA.,4256,12.48501000,-85.91116000,25 KM. AL NORTE DE TEUSTEPE.,"PREESCOLAR COMUNITARIO MULTINIVEL,SECUNDARIA EN EL CAMPO,PRIMARIA MULTIGRADO","10,30,14","3,2","SECUNDARIA,PRIMARIA",Boaco,Teustepe,11,98
CENTRO ESCOLAR JOSÉ DE LA CRUZ MENA.,4257,12.45351700,-85.88747800,10 KMS. DE TEUSTEPE.,"PREESCOLAR COMUNITARIO MULTINIVEL,PRIMARIA MULTIGRADO","10,14",2,PRIMARIA,Boaco,Teustepe,11,98
CENTRO ESCOLAR EMERICK CASTILLO JIRON,4258,12.52483000,-85.91520000,30 KMS. DE TEUSTEPE.,"PRIMARIA MULTIGRADO,PREESCOLAR COMUNITARIO MULTINIVEL","14,10",2,PRIMARIA,Boaco,Teustepe,11,98
CENTRO ESCOLAR GEOCONDA BELLI.,4259,12.50443000,-85.92575400,DE TEUSTEPE 30 KM AL NORTE.,"PRIMARIA MULTIGRADO,III CICLO,PREESCOLAR COMUNITARIO MULTINIVEL,IV CICLO,PRIMARIA REGULAR","14,107,10,109,3","2,2","PRIMARIA,PRIMARIA",Boaco,Teustepe,11,98
CENTRO ESCOLAR CARLOS MEJIA GODOY.,4260,12.42446200,-85.93815100,20 KMS. DE TEUSTEPE.,"PRIMARIA MULTIGRADO,PREESCOLAR COMUNITARIO MULTINIVEL","14,10",2,PRIMARIA,Boaco,Teustepe,11,98
ESCUELA PABLO ANTONIO CUADRA (CERRO DE PIEDRA),4261,12.44992000,-85.92079900,18 KM. DE TEUSTEPE.,"PRIMARIA MULTIGRADO,PREESCOLAR COMUNITARIO MULTINIVEL","14,10",2,PRIMARIA,Boaco,Teustepe,11,98
CENTRO ESCOLAR JOSE CECILIO DEL VALLE.,4262,12.49941600,-85.82145200,14 KM. DE TEUSTEPE.,"PRIMARIA MULTIGRADO,PREESCOLAR COMUNITARIO MULTINIVEL","14,10",2,PRIMARIA,Boaco,Teustepe,11,98
CENTRO ESCOLAR ALEXIS ARGÛELLO.,4263,12.50780000,-85.95730000,MADERAS NEGRAS.,"PREESCOLAR COMUNITARIO,SECUNDARIA EN EL CAMPO,PRIMARIA MULTIGRADO","1,30,14","3,2","SECUNDARIA,PRIMARIA",Boaco,Teustepe,11,98
CENTRO ESCOLAR JOSÉ DOLORES ESTRADA.,4264,12.49457900,-85.84352100,TEUSTEPE 17 KM. AL NORTE.,"PREESCOLAR COMUNITARIO MULTINIVEL,PRIMARIA MULTIGRADO","10,14",2,PRIMARIA,Boaco,Teustepe,11,98
KATHIA CARDENAL,4265,12.54484000,-85.96429000,DE TEUSTEPE 50 KILOMETROS AL PRADO.,"PRIMARIA MULTIGRADO,PREESCOLAR COMUNITARIO MULTINIVEL","14,10",2,PRIMARIA,Boaco,Teustepe,11,98
CENTRO ESCOLAR DENIS MARTINEZ.,4266,12.45645800,-85.78119400,TEUSTEPE 5 KMS..,"PRIMARIA MULTIGRADO,PREESCOLAR COMUNITARIO MULTINIVEL","14,10",2,PRIMARIA,Boaco,Teustepe,11,98
CENTRO ESCOLAR ELENA ARELLANO.,4267,12.50237000,-85.94285000,30 KMS. AL NORTE.,"PREESCOLAR COMUNITARIO MULTINIVEL,PRIMARIA MULTIGRADO","10,14",2,PRIMARIA,Boaco,Teustepe,11,98
SAN JOAQUIN,4268,12.46514100,-85.96401100,TEUSTEPE 40 KMS..,"PRIMARIA MULTIGRADO,PREESCOLAR COMUNITARIO MULTINIVEL","14,10",2,PRIMARIA,Boaco,Teustepe,11,98
CENTRO ESCOLAR JOSEFA TOLEDO DE AGUIRRE.,4269,12.48424000,-85.87230000,18 KMS DE TEUSTEPE.,"PREESCOLAR COMUNITARIO MULTINIVEL,PRIMARIA MULTIGRADO,IV CICLO,III CICLO","10,14,109,107",2,PRIMARIA,Boaco,Teustepe,11,98
EL VENTARRON,4270,12.47913900,-85.93593200,A 23 KMS. DE TEUSTEPE.,"PREESCOLAR COMUNITARIO MULTINIVEL,PRIMARIA MULTIGRADO","10,14",2,PRIMARIA,Boaco,Teustepe,11,98
FOWS VALENCIA,4271,12.54428000,-85.75345000,20 KMS. AL NORTE DE TEUSTEPE.,"PRIMARIA MULTIGRADO,PREESCOLAR COMUNITARIO MULTINIVEL,III CICLO","14,10,107",2,PRIMARIA,Boaco,Teustepe,11,98
CENTRO ESCOLAR RUBEN DARIO.,4272,12.36614700,-85.87773100,TEUSTEPE 12 KM. CARRETERA A MANAGUA.,"PREESCOLAR COMUNITARIO MULTINIVEL,PRIMARIA MULTIGRADO","10,14",2,PRIMARIA,Boaco,Teustepe,11,98
GRACIAS A DIOS (HORACIO RODRÍGUEZ),4273,12.39887000,-85.85252000,EL BOQUERON 7 KM. CARRETERA A MANAGUA.,"PRIMARIA MULTIGRADO,PREESCOLAR FORMAL","14,2",2,PRIMARIA,Boaco,Teustepe,11,98
CENTRO ESCOLAR RAFAELA HERRERA.,4274,12.52412000,-85.78787300,18 KMS. AL NORTE DE TEUSTEPE.,"PRIMARIA MULTIGRADO,PREESCOLAR COMUNITARIO MULTINIVEL","14,10",2,PRIMARIA,Boaco,Teustepe,11,98
CENTRO ESCOLAR GENOVEVA CAMPOS.,4275,12.44345000,-85.69300000,DE TEUESTEPE 12  KM.  AL QUEBRACHO.,PRIMARIA MULTIGRADO,14,2,PRIMARIA,Boaco,Teustepe,11,98
CENTRO ESCOLAR ALEJANDRINO VERELA,4276,12.42086700,-85.91350300,DE TEUSTEPE 18 KMS AL OESTE.,"PRIMARIA MULTIGRADO,PREESCOLAR COMUNITARIO","14,1",2,PRIMARIA,Boaco,Teustepe,11,98
CENTRO ESCOLAR MIGUEL RAMIREZ GOYENA.,4277,12.52670000,-85.95870000,A 30 KM. DE TEUSTEPE.,"PREESCOLAR COMUNITARIO MULTINIVEL,SECUNDARIA EN EL CAMPO,PRIMARIA MULTIGRADO","10,30,14","3,2","SECUNDARIA,PRIMARIA",Boaco,Teustepe,11,98
CAMILO ORTEGA,4278,12.52611000,-85.97208000,DE TEUSTEPE 40 KMS AL CARAO.,"PRIMARIA MULTIGRADO,PREESCOLAR COMUNITARIO MULTINIVEL,III CICLO","14,10,107",2,PRIMARIA,Boaco,Teustepe,11,98
LUIS RAMON SERRANO,4279,12.49618300,-85.91344500,DE TEUSTEPE 20 KMS AL CHILAMATE.,"PREESCOLAR COMUNITARIO MULTINIVEL,PRIMARIA MULTIGRADO","10,14",2,PRIMARIA,Boaco,Teustepe,11,98
LAS LIMAS,4280,12.39957000,-85.79603000,4 KMS A LAS LIMAS.,PRIMARIA MULTIGRADO,14,2,PRIMARIA,Boaco,Teustepe,11,98
SIMON BOLIVAR,4281,12.38886600,-85.87070200,DE TEUSTEPE 10 KMS AL VENTARRON.,"PRIMARIA MULTIGRADO,PREESCOLAR COMUNITARIO MULTINIVEL","14,10",2,PRIMARIA,Boaco,Teustepe,11,98
FRANCISCO MORAZAN,4282,12.41198000,-85.81989000,DE TEUSTEPE 3KMS A PATASTULE.,"PRIMARIA MULTIGRADO,PREESCOLAR COMUNITARIO MULTINIVEL","14,10",2,PRIMARIA,Boaco,Teustepe,11,98
GUARDABARRANCO,4283,12.49875300,-85.89190500,DE TEUSTEPE 18 KMS AL ESCOBILLO.,"PREESCOLAR COMUNITARIO,PRIMARIA MULTIGRADO","1,14",2,PRIMARIA,Boaco,Teustepe,11,98
CENTRO ESCOLAR LOS NEGRITOS,4284,12.46208000,-85.90835000,30 KMS LOS NEGRITOS.,"SECUNDARIA EN EL CAMPO,PREESCOLAR COMUNITARIO,PRIMARIA MULTIGRADO","30,1,14","3,2","SECUNDARIA,PRIMARIA",Boaco,Teustepe,11,98
GREGORIO OBANDO,4285,12.32075300,-85.84369800,30 KM AL NORTE DE TEUSTEPE.,PRIMARIA MULTIGRADO,14,2,PRIMARIA,Boaco,Teustepe,11,98
FRANCISCO RODRIGUEZ VARGAS (EL MOJON),4286,12.54968400,-85.93773600,DE TEUSTEPE 30 KM AL MOJÓN.,"PRIMARIA MULTIGRADO,PREESCOLAR COMUNITARIO MULTINIVEL","14,10",2,PRIMARIA,Boaco,Teustepe,11,98
SON ZAPOTE #3,4287,12.45404000,-85.92968100,DE TEUSTEPE 33 KM A SON ZAPOTE #3.,"PREESCOLAR COMUNITARIO MULTINIVEL,PRIMARIA MULTIGRADO","10,14",2,PRIMARIA,Boaco,Teustepe,11,98
MARIA DOLORES ALEMAN,4288,12.54028000,-85.90550000,DE TEUSTEPE 30KM AL TIERRA BLANCA.,PRIMARIA MULTIGRADO,14,2,PRIMARIA,Boaco,Teustepe,11,98
RENE NUÑEZ,4289,12.51438000,-85.91964000,DE TEUSTEPE 26KM AL OESTE.,"PRIMARIA MULTIGRADO,PREESCOLAR COMUNITARIO MULTINIVEL","14,10",2,PRIMARIA,Boaco,Teustepe,11,98
SERGIO SOZA,4291,12.35818000,-85.90125000,KM53  CARRETERA MANAGUA RAMA.,"PREESCOLAR COMUNITARIO MULTINIVEL,PRIMARIA MULTIGRADO","10,14",2,PRIMARIA,Boaco,Teustepe,11,98
CENTRO ESCOLAR LAURE LEE SCHEIDEMAN,4292,12.41890000,-85.74608000,EMPALME DE BOACO.,"SECUNDARIA REGULAR,III CICLO,IV CICLO","5,107,109",3,SECUNDARIA,Boaco,Teustepe,11,98
OTTO DE LA ROCHA,4293,12.48997000,-85.96686000,A 40 KMS DE TEUSTEPE.,"PRIMARIA MULTIGRADO,PREESCOLAR COMUNITARIO MULTINIVEL","14,10",2,PRIMARIA,Boaco,Teustepe,11,98
ARLEN SIU,4294,12.49041000,-85.85386200,16KM DE TEUSTEPE.,"PRIMARIA MULTIGRADO,III CICLO,PREESCOLAR COMUNITARIO MULTINIVEL","14,107,10",2,PRIMARIA,Boaco,Teustepe,11,98
GERMAN POMARES ORDOÑEZ,4295,12.50522900,-85.90072000,22 KM AL NOROESTE DE TEUSTEPE.,"PREESCOLAR COMUNITARIO,PRIMARIA MULTIGRADO","1,14",2,PRIMARIA,Boaco,Teustepe,11,98
BRAULIO GUZMAN GARCIA,4296,12.42902000,-85.68040000,15 KM AL ESTE DE TEUSTEPE.,PRIMARIA MULTIGRADO,14,2,PRIMARIA,Boaco,Teustepe,11,98
CENTRO ESCOLAR AUGUSTO C. SANDINO,4297,12.38781500,-85.88504700,DEL KM 60 CARRETERA MANAGUA RAMA 900 VRS AL NORTE.,"PREESCOLAR COMUNITARIO MULTINIVEL,PRIMARIA MULTIGRADO","10,14",2,PRIMARIA,Boaco,Teustepe,11,98
CENTRO ESCOLAR CARLOS FONSECA AMADOR,4298,12.51869400,-85.81233800,DE TEUSTEPE 18KM AL NORTE.,PRIMARIA MULTIGRADO,14,2,PRIMARIA,Boaco,Teustepe,11,98
CENTRO ESCOLAR ERNESTO CHE GUEVARA,4299,12.50492000,-85.97910000,DE TEUSTEPE 48 KM AL OESTE.,PRIMARIA MULTIGRADO,14,2,PRIMARIA,Boaco,Teustepe,11,98
CENTRO ESCOLAR GERAL RAMIRO MEJIA,4300,12.33995000,-85.72899000,SECTOR LAS TORREZ.,PRIMARIA MULTIGRADO,14,2,PRIMARIA,Boaco,Teustepe,11,98
CENTRO ESCOLAR ASUNCION DE MARIA,4301,12.42014908,-85.80121152,CEMENTERIO VIEJO 1 1/2 C. AL SUR.,"PRIMARIA REGULAR,PREESCOLAR FORMAL","3,2",2,PRIMARIA,Boaco,Teustepe,11,98
CENTRO ESCOLAR FRANCISCO CORDERO,3582,11.85178000,-86.23634000,HOSPITAL SAN JOSE 4 CUADRAS AL SUR.,"SECUNDARIA EN EL CAMPO,PRIMARIA A DISTANCIA EN EL CAMPO,PRIMARIA REGULAR,PREESCOLAR FORMAL","30,56,3,2","3,2,2","SECUNDARIA,PRIMARIA,PRIMARIA",Carazo,Diriamba,8,76
CENTRO ESCOLAR LA ASUNCIÓN,3583,11.87219000,-86.24024000,KM 40½ CARRETERA SUR.,"PREESCOLAR FORMAL,PREESCOLAR FORMAL MULTINIVEL,PRIMARIA REGULAR","2,11,3",2,PRIMARIA,Carazo,Diriamba,8,76
LAS OVEJITAS DEL BUEN JESUS,3584,11.85648400,-86.24110800,COSTADO SUR DE ENITEL DIRIAMBA-CARAZO.,"PREESCOLAR COMUNITARIO,PREESCOLAR FORMAL","1,2",,,Carazo,Diriamba,8,76
JARDIN DE NIÑOS M. MONTESSORI,3585,11.85850000,-86.23190000,RELOJ PUBLICO 1C AL SUR 1 CUADRA ARRIBA.,PREESCOLAR FORMAL,2,,,Carazo,Diriamba,8,76
CENTRO ESCOLAR CRISTIANO MONTE SINAI,3586,11.85550000,-86.23000000,DE LA ACADEMIA SANTA MARIA 2 CUADRAS AL SUR.,"SECUNDARIA REGULAR,PRIMARIA REGULAR","5,3","3,2","SECUNDARIA,PRIMARIA",Carazo,Diriamba,8,76
CENTRO ESCOLAR MADRE TERESA DE CALCUTA,3587,11.86492600,-86.26843800,4 KM AL NORTE DEL COLEGIO LA SALLE.,"PRIMARIA REGULAR,PREESCOLAR FORMAL MULTINIVEL,PRIMARIA MULTIGRADO,SECUNDARIA EN EL CAMPO","3,11,14,30","2,2,3","PRIMARIA,PRIMARIA,SECUNDARIA",Carazo,Diriamba,8,76
CENTRO ESCOLAR SANTA TERESA DE JESUS,3588,11.81708200,-86.34721400,21 KM CARRETERA NOROESTE SAN GREGORIO.,"PREESCOLAR FORMAL MULTINIVEL,PRIMARIA MULTIGRADO","11,14",2,PRIMARIA,Carazo,Diriamba,8,76
LOS ANGELES DE SAN GREGORIO,3589,11.82930000,-86.30270000,13 KM AL NOROESTE DEOBRA LOS  ANGELES.,"PRIMARIA REGULAR,PRIMARIA MULTIGRADO,PREESCOLAR FORMAL MULTINIVEL","3,14,11","2,2","PRIMARIA,PRIMARIA",Carazo,Diriamba,8,76
CENTRO ESCOLAR ENMANUEL MONGALO Y RUBIO,3591,11.85096500,-86.25184600,COLONIA SAN SEBASTIAN 300 MTS ABAJO.,"PRIMARIA REGULAR,SECUNDARIA REGULAR,PREESCOLAR FORMAL MULTINIVEL,III CICLO","3,5,11,107","2,3","PRIMARIA,SECUNDARIA",Carazo,Diriamba,8,76
CENTRO ESCOLAR DR. SALVADOR MENDIETA,3592,11.69480400,-86.35915400,KM 65 CARRETERA A LA BOQUITA.,"PREESCOLAR COMUNITARIO MULTINIVEL,PRIMARIA REGULAR,PRIMARIA MULTIGRADO,PREESCOLAR FORMAL MULTINIVEL,PRIM. REGULAR EN EDUC. ESPECIAL","10,3,14,11,60","2,2","PRIMARIA,PRIMARIA",Carazo,Diriamba,8,76
INSTITUTO NACIONAL NOCTURNO SAN SEBASTIAN,3593,11.86270000,-86.24370000,CONTIGUO AL ESTADIO NACIONAL DIRIANGEN.,SECUNDARIA POR ENCUENTRO,13,3,SECUNDARIA,Carazo,Diriamba,8,76
CENTRO ESCOLAR DR. RENE SCHICK GUTIERREZ,3594,11.85933400,-86.24577100,ESTADIO DIRIANGEN 300 VRS ABAJO.,"PRIMARIA REGULAR,IV CICLO,PREESCOLAR FORMAL,SECUNDARIA REGULAR,PREESCOLAR FORMAL MULTINIVEL,PRIMARIA EXTRAEDAD,III CICLO","3,109,2,5,11,4,107","2,3,2","PRIMARIA,SECUNDARIA,PRIMARIA",Carazo,Diriamba,8,76
ACADEMIA SANTA MARIA,3595,11.85560000,-86.23190000,BASILICA SAN SEBASTIAN 1C AL SUR ½ OESTE.,"PREESCOLAR FORMAL,SECUNDARIA REGULAR,PRIMARIA REGULAR","2,5,3","3,2","SECUNDARIA,PRIMARIA",Carazo,Diriamba,8,76
SAN FRANCISCO,3596,11.84990000,-86.24100000,DETRÁS DE LA IGLESIA SAN JOSE 200 MTS AL SUR.,"PRIMARIA REGULAR,PREESCOLAR FORMAL","3,2",2,PRIMARIA,Carazo,Diriamba,8,76
EMMANUEL,3597,11.85710000,-86.22990000,RELOJ 4½ CUADRA AL SUR.,"PREESCOLAR FORMAL MULTINIVEL,SECUNDARIA REGULAR,PRIMARIA REGULAR","11,5,3","3,2","SECUNDARIA,PRIMARIA",Carazo,Diriamba,8,76
INSTITUTO NACIONAL DIRIANGEN,3598,11.84719000,-86.24154000,DE LA IGLESIA SAN JOSE 1 KM AL SUR OESTE.,"III CICLO,PRIMARIA REGULAR,EBA,SECUNDARIA REGULAR,PREESCOLAR FORMAL MULTINIVEL","107,3,102,5,11","2,3","PRIMARIA,SECUNDARIA",Carazo,Diriamba,8,76
CENTRO ESCOLAR RUBEN DARIO,3599,11.86090300,-86.23487100,RELOJ 4½ CUADRA AL SUR.,"PREESCOLAR FORMAL MULTINIVEL,PRIMARIA REGULAR","11,3",2,PRIMARIA,Carazo,Diriamba,8,76
CENTRO ESCOLAR MADRE DEL DIVINO PASTOR,3600,11.85950000,-86.23030000,COLEGIO MADRE DEL DIVINO PASTOR.,"SECUNDARIA REGULAR,PREESCOLAR FORMAL,PRIMARIA REGULAR","5,2,3","3,2","SECUNDARIA,PRIMARIA",Carazo,Diriamba,8,76
SAN VICENTE,3601,11.83690300,-86.32327000,17 KM CARRETERA NOROESTE SAN GREGORIO.,"III CICLO,SECUNDARIA REGULAR,PRIMARIA REGULAR,PRIMARIA MULTIGRADO,PREESCOLAR FORMAL MULTINIVEL","107,5,3,14,11","3,2,2","SECUNDARIA,PRIMARIA,PRIMARIA",Carazo,Diriamba,8,76
CENTRO ESCOLAR GABRIELA MISTRAL,3602,11.79720000,-86.31900000,20 KM NOROESTE DE DIRIAMBA.,"SECUNDARIA REGULAR,PREESCOLAR COMUNITARIO MULTINIVEL,PRIMARIA MULTIGRADO","5,10,14","3,2","SECUNDARIA,PRIMARIA",Carazo,Diriamba,8,76
CENTRO ESCOLAR FRANCISCO VALERIO,3603,11.87388800,-86.26549000,4 KM AL NORTE DEL COLEGIO LA SALLE.,"PRIMARIA MULTIGRADO,PREESCOLAR COMUNITARIO MULTINIVEL","14,10",2,PRIMARIA,Carazo,Diriamba,8,76
CENTRO ESCOLAR SIMON BOLIVAR,3604,11.64584370,-86.35542940,30 KM AL OESTE DE DIRIAMBA.,"PREESCOLAR FORMAL,SECUNDARIA REGULAR,PRIM. REGULAR EN EDUC. ESPECIAL,PRIMARIA REGULAR","2,5,60,3","3,2","SECUNDARIA,PRIMARIA",Carazo,Diriamba,8,76
CENTRO ESCOLAR PROF. ZENEYDA MOJICA DE PACHECO,3605,11.73350000,-86.36450000,EMPALME TRINIDAD 100 MTS AL NORTE 3 KM AL OESTE.,"PREESCOLAR FORMAL MULTINIVEL,PRIMARIA MULTIGRADO","11,14",2,PRIMARIA,Carazo,Diriamba,8,76
CENTRO ESCOLAR JOSE CECILIO DEL VALLE,3606,11.82781100,-86.26857300,KM 46 CARRETERA A LA BOQUITA.,"PREESCOLAR COMUNITARIO MULTINIVEL,SECUNDARIA EN EL CAMPO,PRIMARIA REGULAR,PRIMARIA MULTIGRADO","10,30,3,14","3,2,2","SECUNDARIA,PRIMARIA,PRIMARIA",Carazo,Diriamba,8,76
CENTRO ESCOLAR DR. EFRAIN GUTIERREZ DAVILA,3607,11.76150900,-86.33768900,TRINIDAD 4 KM AL NOROESTE.,PRIMARIA MULTIGRADO,14,2,PRIMARIA,Carazo,Diriamba,8,76
CENTRO ESCOLAR TOMAS ECHAVERRY,3608,11.79138400,-86.27355300,3 KM AL NORTE DE APOMPOA.,"PREESCOLAR COMUNITARIO MULTINIVEL,PRIMARIA MULTIGRADO","10,14",2,PRIMARIA,Carazo,Diriamba,8,76
CENTRO ESCOLAR PROF. MARIA MERCEDES MENDIETA M.,3609,11.70650100,-86.32548000,TRINIDAD 4KM AL SUR.,"PRIMARIA MULTIGRADO,PREESCOLAR FORMAL MULTINIVEL","14,11",2,PRIMARIA,Carazo,Diriamba,8,76
PEDRO JOAQUIN CHAMORRO,3610,11.85146800,-86.24494800,COSTADO OESTE DEL CEMENTERIO.,"PRIMARIA REGULAR,PREESCOLAR FORMAL MULTINIVEL,PRIMARIA MULTIGRADO","3,11,14","2,2","PRIMARIA,PRIMARIA",Carazo,Diriamba,8,76
CENTRO ESCOLAR LEONARDO DAVINCI,3611,11.85046900,-86.27946200,DEL TEMPLO CATOLICO 100 VRS AL ESTE.,"PRIMARIA MULTIGRADO,PREESCOLAR FORMAL MULTINIVEL","14,11",2,PRIMARIA,Carazo,Diriamba,8,76
CENTRO ESCOLAR SIMON BOLIVAR,3613,11.64584370,-86.35542940,30 KM AL OESTE DE DIRIAMBA.,"PREESCOLAR FORMAL,SECUNDARIA REGULAR,PRIM. REGULAR EN EDUC. ESPECIAL,PRIMARIA REGULAR","2,5,60,3","3,2","SECUNDARIA,PRIMARIA",Carazo,Diriamba,8,76
CENTRO ESCOLAR JESUS DE NAZARETH,3614,11.67661000,-86.38019300,33 KMS AL OESTE DE DIRIAMBA.,"III CICLO,PREESCOLAR COMUNITARIO MULTINIVEL,PRIMARIA REGULAR,PRIMARIA MULTIGRADO,PREESCOLAR FORMAL MULTINIVEL,SECUNDARIA REGULAR","107,10,3,14,11,5","2,2,3","PRIMARIA,PRIMARIA,SECUNDARIA",Carazo,Diriamba,8,76
CENTRO ESCOLAR ANDRES CASTRO,3615,11.82820600,-86.24814000,COSTADO OESTE DEL CEMENTERIO 5 KM ABAJO.,"PREESCOLAR COMUNITARIO MULTINIVEL,PRIMARIA MULTIGRADO","10,14",2,PRIMARIA,Carazo,Diriamba,8,76
CENTRO ESCOLAR ALFONSO CORTEZ,3616,11.79421600,-86.25098200,HOSPITAL SAN JOSE 10 KMAL SUR OESTE.,"PRIMARIA MULTIGRADO,PREESCOLAR COMUNITARIO MULTINIVEL","14,10",2,PRIMARIA,Carazo,Diriamba,8,76
SAN ANTONIO ARRIBA,3617,11.84736200,-86.27297700,DE LA IGLESIA EVANGELICA CASA ORACION 60 VRS AL SUR.,"PREESCOLAR FORMAL MULTINIVEL,PRIMARIA MULTIGRADO,PRIMARIA REGULAR","11,14,3","2,2","PRIMARIA,PRIMARIA",Carazo,Diriamba,8,76
INSTITUTO NACIONAL BAYARDO CORDERO MENDIETA,3618,11.73824500,-86.33202600,IGLESIA BAUTISTA 1C ARRIBA.,"PREESCOLAR FORMAL MULTINIVEL,IV CICLO,PRIMARIA REGULAR,SECUNDARIA REGULAR,III CICLO,PREESCOLAR COMUNITARIO MULTINIVEL","11,109,3,5,107,10","2,3","PRIMARIA,SECUNDARIA",Carazo,Diriamba,8,76
CENTRO ESCOLAR REY DE REYES,3619,11.78088500,-86.28526500,KM 51 CARRETERA A LA BOQUITA.,"PREESCOLAR COMUNITARIO MULTINIVEL,PRIMARIA MULTIGRADO","10,14",2,PRIMARIA,Carazo,Diriamba,8,76
CENTRO ESCOLAR LA INMACULADA CONCEPCION,3620,11.80545600,-86.32401700,5 KM AL NOROESTE DE BUENA VISTA NORTE.,"PRIMARIA MULTIGRADO,PREESCOLAR FORMAL MULTINIVEL","14,11",2,PRIMARIA,Carazo,Diriamba,8,76
COLEGIO PEDRO JOAQUIN CHAMORRO,3621,11.81370000,-86.33050000,17 KM AL NORTE DE DIRIAMBA.,"PRIMARIA REGULAR,PREESCOLAR FORMAL MULTINIVEL,SECUNDARIA REGULAR","3,11,5","2,3","PRIMARIA,SECUNDARIA",Carazo,Diriamba,8,76
CENTRO ESCOLAR CRISTOBAL COLON,3622,11.79436400,-86.36202000,A 5 KM DE BUENA VISTA NORTE.,"PREESCOLAR FORMAL MULTINIVEL,PRIMARIA MULTIGRADO","11,14",2,PRIMARIA,Carazo,Diriamba,8,76
COLEGIO SAN FRANCISCO DE ASIS (BNA VTA DEL SUR),3623,11.75712000,-86.30246600,KM 55½ CARRETERA A LA BOQUITA.,"SECUNDARIA REGULAR,PREESCOLAR FORMAL MULTINIVEL,PRIMARIA REGULAR","5,11,3","3,2","SECUNDARIA,PRIMARIA",Carazo,Diriamba,8,76
ESC.JOSE DE LA CRUZ MENA(RIO SECO),3624,11.80676400,-86.27262900,KM 48 ½ CARRETERA A LA BOQUITA.,"PREESCOLAR COMUNITARIO MULTINIVEL,PRIMARIA MULTIGRADO","10,14",2,PRIMARIA,Carazo,Diriamba,8,76
CENTRO ESCOLAR RAFAELA HERRERA,3625,11.84518300,-86.31110200,15 KM CARRETERA NOROESTE SAN GREGORIO.,"PRIMARIA MULTIGRADO,PREESCOLAR COMUNITARIO MULTINIVEL","14,10",2,PRIMARIA,Carazo,Diriamba,8,76
CENTRO ESCOLAR PROF. CESAR MELENDEZ,3626,11.67560000,-86.30740000,EMPALME TRINIDAD 10 KM AL SUR.,"PREESCOLAR COMUNITARIO MULTINIVEL,PRIMARIA MULTIGRADO","10,14",2,PRIMARIA,Carazo,Diriamba,8,76
CENTRO ESCOLAR PROF. LUCRECIA MOLINA DE RUIZ,3627,11.74804400,-86.35343100,TRINIDAD 3 KM AL NORTE.,"PRIMARIA MULTIGRADO,PREESCOLAR FORMAL MULTINIVEL,SECUNDARIA EN EL CAMPO","14,11,30","2,3","PRIMARIA,SECUNDARIA",Carazo,Diriamba,8,76
CENTRO ESCOLAR SAN ANTONIO DE PADUA(SN ATNIO.ABAJO),3628,11.83833000,-86.29317600,10 KM AL NOROESTE DE OBA SAN ANTONIO DE ABAJO.,PRIMARIA MULTIGRADO,14,2,PRIMARIA,Carazo,Diriamba,8,76
COLEGIO SAN GREGORIO,3629,11.83227000,-86.30606000,13 KM AL NOROESTE DE OBA FRENTE A LA IGLESIA CATOLICA.,"IV CICLO,PRIMARIA REGULAR,III CICLO,PREESCOLAR FORMAL,SECUNDARIA REGULAR,PREESCOLAR FORMAL MULTINIVEL","109,3,107,2,5,11","2,3","PRIMARIA,SECUNDARIA",Carazo,Diriamba,8,76
CENTRO ESCOLAR FRANCISCO MORAZAN,3630,11.79214200,-86.32729700,22 KM SUROESTE DE DIRIAMBA.,"PREESCOLAR FORMAL MULTINIVEL,PRIM. MULTIGRADO EN EDUC. ESPECIAL,PRIMARIA MULTIGRADO","11,61,14",2,PRIMARIA,Carazo,Diriamba,8,76
LOS CUMICHES,3631,11.85720000,-86.23380000,SHELL ½C. AL SUR.,PREESCOLAR FORMAL,2,,,Carazo,Diriamba,8,76
CENTRO ESCOLAR CARLOS A. BRAVO,3632,11.82101500,-86.28646100,7 KM AL OESTE DE DIRIAMBA.,"PRIMARIA MULTIGRADO,PREESCOLAR COMUNITARIO MULTINIVEL","14,10",2,PRIMARIA,Carazo,Diriamba,8,76
"CRISTO REY, FE Y ALEGRIA",3633,11.85500000,-86.24890000,KM 42 CARRETERA DIRIAMBA LA BOQUITA.,"PREESCOLAR FORMAL MULTINIVEL,PRIMARIA REGULAR","11,3",2,PRIMARIA,Carazo,Diriamba,8,76
SANTA JUANA,3634,11.84639600,-86.23606700,2ª CALLE BO. STA JUANA.,"PRIMARIA REGULAR,PREESCOLAR FORMAL MULTINIVEL,PRIMARIA MULTIGRADO","3,11,14","2,2","PRIMARIA,PRIMARIA",Carazo,Diriamba,8,76
PREESCOLAR HERMANA DONNA HOLLAND,3635,11.82530000,-86.24830000,CONTIGUO AL CENTRO ESCOLAR RENE SCHICK.,"SECUNDARIA REGULAR,PREESCOLAR FORMAL,PRIMARIA REGULAR","5,2,3","3,2","SECUNDARIA,PRIMARIA",Carazo,Diriamba,8,76
SANTA FE,3636,11.69820000,-86.40190000,DE LA BOQUITA 3 KM AL NORTE.,PRIMARIA MULTIGRADO,14,2,PRIMARIA,Carazo,Diriamba,8,76
COLEGIO CRISTIANO MONTE DE LOS OLIVOS,3637,11.80510000,-86.32390000,CENTRO DE SALUD 1C AL NORTE ½ CUADRA ARRIBA.,"PRIMARIA REGULAR,SECUNDARIA REGULAR,PREESCOLAR FORMAL MULTINIVEL,PREESCOLAR FORMAL","3,5,11,2","2,3","PRIMARIA,SECUNDARIA",Carazo,Diriamba,8,76
CENTRO ESCOLAR SANTA ROSA,3638,11.65516600,-86.32884400,6KM A ESTE DE CASARES.,"PREESCOLAR COMUNITARIO MULTINIVEL,PRIMARIA MULTIGRADO","10,14",2,PRIMARIA,Carazo,Diriamba,8,76
MI PEQUEÑA LUZ,3639,11.85800000,-86.23870000,DE LA GASOLINERA ESSO 200MTS AL ESTE.,"SECUNDARIA REGULAR,PREESCOLAR FORMAL,PRIMARIA REGULAR","5,2,3","3,2","SECUNDARIA,PRIMARIA",Carazo,Diriamba,8,76
COLEGIO LA SALLE,3640,11.86231300,-86.24398300,CONTIGUO AL ESTADIO CACIQUE DIRIANGEN.,"PREESCOLAR FORMAL,SECUNDARIA REGULAR,PRIMARIA REGULAR","2,5,3","3,2","SECUNDARIA,PRIMARIA",Carazo,Diriamba,8,76
ESCUELA ESPECIAL EL DIVINO NIÑO,3641,11.84815000,-86.24048000,FRENTE AL INSTITUTO NACIONAL DIRIANGEN.,"INCLUSION SOCIO LABORAL,PRIM. REGULAR EN EDUC. ESPECIAL,EDUCACION TEMPRANA,PREES. FORMAL EN EDUC. ESPECIAL","23,60,24,59",,,Carazo,Diriamba,8,76
ESCUELA CRISTIANA EBENESER (ROCA DE APOYO),3642,11.85020000,-86.23920000,DE LA CRUZ 50 V  ABAJO.,"PRIMARIA REGULAR,PREESCOLAR FORMAL MULTINIVEL","3,11",2,PRIMARIA,Carazo,Diriamba,8,76
CENTRO ESCOLAR LOS CONEJITOS,3643,11.86930600,-86.25062200,ISNTITUTO LA SALLE 3KM AL NORTE.,"PREESCOLAR FORMAL MULTINIVEL,PRIMARIA MULTIGRADO,PRIMARIA REGULAR","11,14,3","2,2","PRIMARIA,PRIMARIA",Carazo,Diriamba,8,76
EL BONEÑO,3645,11.82563700,-86.28941800,CARRETERA SAN GREGORIO SALLE DEL MANGO 4 KM AL SUR OESTE.,PRIMARIA MULTIGRADO,14,2,PRIMARIA,Carazo,Diriamba,8,76
INSTITUTO NACIONAL DE EXCELENCIA ACADEMICA SANDINO,3646,11.86820000,-86.24870000,ESTADIO DIRIANGEN 700MTS AL NORTE.,SECUNDARIA REGULAR,5,3,SECUNDARIA,Carazo,Diriamba,8,76
CENTRO ESCOLAR LOS HORNITOS,3647,11.72545600,-86.40249100,DEL TAMARINDO 5MS AL ESTE.,PRIMARIA MULTIGRADO,14,2,PRIMARIA,Carazo,Diriamba,8,76
ESCUELA SAN GREGORIO-NUEVO AMANECER,3648,11.83596300,-86.30456500,CONTIGUO AL CAMPO DEPORTIVO.,PRIM. REGULAR EN EDUC. ESPECIAL,60,,,Carazo,Diriamba,8,76
PREESCOLAR ESTRELLA BRILLANTE,3649,11.85390000,-86.23150000,PORTON VIEJO DEL CEMENTERIO ½C AL ESTE.,PREESCOLAR FORMAL,2,,,Carazo,Diriamba,8,76
PREESCOLAR MI MUNDO FELIZ,3650,11.85280000,-86.23250000,ENITEL (CLARO) 2C AL SUR ½C AL ESTE.,PREESCOLAR FORMAL,2,,,Carazo,Diriamba,8,76
PREESCOLAR CASITA FELIZ,3651,11.86071400,-86.24195000,FRENTE HOSPITAL DEL MAESTRO.,PREESCOLAR FORMAL,2,,,Carazo,Diriamba,8,76
CENTRO ESCOLAR DR. RENE SCHICK GUTIERREZ,3654,11.85693200,-86.21577700,TELCOR 1C AL NORTE.,"PRIMARIA REGULAR,PREESCOLAR FORMAL","3,2",2,PRIMARIA,Carazo,Dolores,8,77
INSTITUTO NACIONAL PROF: BENITO SALINAS GUTIÉRREZ,3656,11.85850000,-86.21420000,CONTIGUO AL JUSGADO.,"SECUNDARIA REGULAR,SECUNDARIA POR ENCUENTRO","5,13","3,3","SECUNDARIA,SECUNDARIA",Carazo,Dolores,8,77
PREESCOLAR RAYITO DE SOL,3657,11.85903000,-86.21408300,IGESIA DE DIOS.,PREESCOLAR FORMAL MULTINIVEL,11,,,Carazo,Dolores,8,77
CARAZO CHRISTIAN ACADEMY,3659,11.85230000,-86.22010000,DE BETANIA 100MTS AL OESTE.,"PRIMARIA REGULAR,SECUNDARIA REGULAR,PREESCOLAR FORMAL","3,5,2","2,3","PRIMARIA,SECUNDARIA",Carazo,Dolores,8,77
CENTRO ESCOLAR HERMANOS DE FINLANDIA,3706,11.84615100,-86.16909200,CAÑAS BLANCAS # 2.,"IV CICLO,PRIMARIA REGULAR,PREESCOLAR FORMAL MULTINIVEL,PRIMARIA MULTIGRADO","109,3,11,14","2,2","PRIMARIA,PRIMARIA",Carazo,El Rosario,8,79
COLEGIO MADRE TEREZA DE CALCUTA,3708,11.83310300,-86.16900200,COSTADO NORTE DEL CEMENTERIO.,"PRIMARIA REGULAR,PREESCOLAR FORMAL,SECUNDARIA POR ENCUENTRO,SECUNDARIA REGULAR","3,2,13,5","2,3,3","PRIMARIA,SECUNDARIA,SECUNDARIA",Carazo,El Rosario,8,79
CENTRO ESCOLAR DR. MANUEL ANTONIO AGUIRRE,3709,11.82830000,-86.15200000,ESTADIO EL ROSARIO 500 METROS AL SUR.,"III CICLO,PRIMARIA REGULAR,PREESCOLAR FORMAL MULTINIVEL,PRIMARIA MULTIGRADO,PRIMARIA A DISTANCIA EN EL CAMPO","107,3,11,14,56","2,2,2","PRIMARIA,PRIMARIA,PRIMARIA",Carazo,El Rosario,8,79
CENTRO ESCOLAR MARIA AUXILIADORA,3710,11.83935300,-86.14904600,FRENTE A LA IGLESIA.,"PREESCOLAR FORMAL MULTINIVEL,PRIMARIA MULTIGRADO","11,14",2,PRIMARIA,Carazo,El Rosario,8,79
EDUCATIVO ANGELES DEL ROSARIO,3711,11.83270000,-86.16540000,COSTADO NOR OESTE DEL PARQUE.,"PREESCOLAR FORMAL MULTINIVEL,PRIMARIA MULTIGRADO","11,14",2,PRIMARIA,Carazo,El Rosario,8,79
CENTRO ESCOLAR SAN JUAN BAUTISTA,3590,11.71110000,-86.28650000,8½ KM AL SUR DE BUENA VISTA DEL SUR.,"PREESCOLAR COMUNITARIO MULTINIVEL,PRIMARIA MULTIGRADO","10,14",2,PRIMARIA,Carazo,Jinotepe,8,78
CENTRO ESCOLAR JOSE MARTI,3612,11.62203700,-86.32988300,40 KM AL OESTE DE DIRIAMBA.,"PRIMARIA MULTIGRADO,PRIMARIA REGULAR,SECUNDARIA REGULAR,PREESCOLAR FORMAL MULTINIVEL","14,3,5,11","2,2,3","PRIMARIA,PRIMARIA,SECUNDARIA",Carazo,Jinotepe,8,78
CENTRO ESCOLAR TUPILAPA,3644,11.61170000,-86.30940000,40 KM AL OESTE DE DIRIAMBA.,PRIMARIA MULTIGRADO,14,2,PRIMARIA,Carazo,Jinotepe,8,78
CENTRO ESCOLAR SAN JOSE,3652,11.76960000,-86.24500000,BARRIO EL PANAMA # 1 DOLORES 14 KM AL SUR OESTE.,"PREESCOLAR FORMAL MULTINIVEL,PRIMARIA MULTIGRADO","11,14",2,PRIMARIA,Carazo,Jinotepe,8,78
CENTRO ESCOLAR RUBEN DARIO,3653,11.77367000,-86.25619600,DE DOLORES 14 KM AL NOR OESTE.,"PRIMARIA MULTIGRADO,PREESCOLAR FORMAL MULTINIVEL,PREESCOLAR COMUNITARIO MULTINIVEL","14,11,10",2,PRIMARIA,Carazo,Jinotepe,8,78
CENTRO ESCOLAR PEDRO JOAQUIN CHAMORRO,3655,11.77234600,-86.24001000,DEL CEMENTERIO 12 KM AL SUR ESTE.,"SECUNDARIA REGULAR,PREESCOLAR FORMAL MULTINIVEL,PRIMARIA MULTIGRADO","5,11,14","3,2","SECUNDARIA,PRIMARIA",Carazo,Jinotepe,8,78
CENTRO ESCOLAR SAN ANTONIO,3658,11.86832800,-86.21221900,Bº SAN ANTONIO.,"PREESCOLAR COMUNITARIO MULTINIVEL,PRIMARIA MULTIGRADO","10,14",2,PRIMARIA,Carazo,Jinotepe,8,78
CENTRO ESCOLAR 19 DE JULIO,3660,11.84761500,-86.22073000,DE LA ENTRADA AL COMUN 600MTS AL SUR.,"PREESCOLAR COMUNITARIO MULTINIVEL,PREESCOLAR FORMAL MULTINIVEL,PRIMARIA MULTIGRADO","10,11,14",2,PRIMARIA,Carazo,Jinotepe,8,78
